PRIMARY_STREET,CROSS_STREET,CITY_COUNTY,STATIONID,AGENCY,NOTES,TDOT_ID,STATUS,PREVIOUS_STATION,Longitude,Latitude,Y1999,Y2000,Y2001,Y2002,Y2003,Y2004,Y2005,Y2006,Y2007,Y2008,Y2009,Y2010,Y2011,Y2012,Y2013,Y2014,Y2015,Y2016,Y2017,Y2018,Y2019,Y2020,Y2021,Y2022
Lovell Rd,NE of Thompson Rd,Knox,47000085,TDOT,,93000085,ACTIVE,,-84.13077194,35.94574385,7320,7840,8590,8733,8778,9137,11341,11748,10914,11854,11615,10294,11685,12944,11970,12325,12565,13964,15371,14076,15485,13731,15927,15462
Ball Camp Byington Rd,N of Hardin Valley Rd,Knox,47000086,TDOT,,93000086,ACTIVE,,-84.12592594,35.95769785,9028,7492,8362,9638,9645,10063,10283,10496,9669,10274,9507,8768,10221,11172,11717,11201,11248,9630,9726,9606,9009,8847,9297,8927
I-40,W of Asheville Hwy,Knox,47000176,TDOT,,93000176,ACTIVE,,-83.84714751,36.01210626,101318,106378,106102,102748,101081,97418,102306,97214,98566,98877,118511,111421,99058,104813,114588,95835,101932,98613,106906,104665,106366,96040,102519,110907
Henderson Ln,At Anderson Co Line,Knox,47000178,TDOT,,93000178,ACTIVE,,-84.13374294,35.99406486,865,894,914,1020,1155,1256,1132,1007,969,972,1039,1082,1010,1079,1058,990,914,951,961,977,1129,1079,1152,1163
Maynardville Pk,S of Rifle Range Dr,Knox,553,TDOT,This counter was given a local ID of 553 in 2020.,553,ACTIVE,,-83.92393876,36.05634022,,,,,,,,,,,,34422,32600,32673,35577,36644,35420,34053,35220,33769,33912,29352,32338,32105
I-40,E. of I-275,Knox,47000460,TDOT,"Moved to just south of HOF bridge in 2021, per MC finding the counter in Streetview",93000460,ACTIVE,,-83.91836288,35.97889887,,,,,,,,,,,,63208,71072,71813,73716,71301,83724,72400,79200,97840,87021,80617,89950,90524
Murphy Rd,N of Washington Pk,Knox,47000462,TDOT,,93000462,ACTIVE,093M374,-83.87580187,36.05338488,,,,,,,,,,,,10443,9843,10453,10363,10752,11436,11935,12323,11545,12141,11040,11703,11952
Cunningham Rd,W of Maynardville Pk,Knox,47000463,TDOT,,93000463,ACTIVE,,-83.93692189,36.07272089,,,,,,,,,,,,7995,7383,8321,8660,7695,8218,9146,9676,8709,8659,8193,8808,8958
Murdock Dr,E of Dutchtown Rd,Knox,47000464,TDOT,,93000464,ACTIVE,093M357,-84.13995594,35.91870385,,,,,,,,,,,,6681,6337,5855,6574,6119,6775,7147,6861,6476,6555,5973,5524,5586
Andes Rd,Between Ball Camp Pk and Cureton Rd,Knox,47000465,TDOT,,93000465,ACTIVE,093M363,-84.09991993,35.95914486,,,,,,,,,,,,3999,3875,4282,4031,4287,4238,4210,4440,3684,4053,4128,4917,4086
Delrose Dr,N of Riverside Dr,Knox,47000300,TDOT,,93000300,ACTIVE,,-83.88033087,35.97139887,2575,3258,2846,2947,3081,3092,3079,3344,3306,3074,4015,3095,2645,2947,2742,2951,3172,3362,3441,3291,3891,4047,4110,3682
Roberts Rd,S of Shelton Ln,Knox,47000302,TDOT,,93000302,ACTIVE,,-83.79379485,36.1030959,2092,1916,2265,2526,2186,2326,2175,2124,2274,1924,1852,1902,1719,1853,1834,1966,1973,1993,2358,2482,2737,2281,2181,2295
Campbell Station Rd,S of Yarnell Rd,Knox,47000303,TDOT,,93000303,ACTIVE,,-84.18600195,35.90975184,1940,3378,2367,3067,2907,2623,2978,3169,3436,3860,4176,3759,4256,4385,4271,4332,4779,5583,5568,5593,5495,4910,5714,6153
Harris Rd,S of Link Rd,Knox,47000307,TDOT,,93000307,ACTIVE,,-83.84698286,36.05046188,791,953,918,1078,1117,1151,1228,1125,974,1094,1210,1185,1073,1218,1217,1282,1388,1402,1389,1409,1531,1351,1419,1337
Washington Pk,S of Valley View Dr,Knox,47000308,TDOT,,93000308,ACTIVE,,-83.88487187,36.02932388,7452,7758,7153,9188,9447,9825,9568,9425,9840,9093,9498,8333,9458,8787,8838,9103,9376,9469,9738,9911,10113,10214,10725,8352
Sevier Ave,W of Jones Rd,Knox,47000310,TDOT,,93000310,ACTIVE,,-83.90991288,35.95720186,13688,9425,10538,9779,9836,6311,6939,6456,6649,7093,7072,5002,4824,4969,4425,4009,5052,4400,5043,4916,5200,5237,5499,6375
N Cherry St,N of Mitchell St,Knox,47000311,TDOT,,93000311,ACTIVE,,-83.90285088,35.99378887,11591,13258,14168,14547,13755,14524,10414,10931,10110,10169,10017,8411,8845,9471,10233,9145,9102,9546,9290,9757,10767,8842,9385,10023
Washington Pk,E of Teeple St,Knox,47000312,TDOT,,93000312,ACTIVE,,-83.90901988,36.00509087,7176,7419,7755,7187,7754,8000,7331,7059,7545,7371,7305,7400,6169,6500,5919,5831,7202,6363,7004,6266,5890,5540,5383,5615
Atlantic Av,E of Oswald St,Knox,47000313,TDOT,,93000313,ACTIVE,,-83.92851688,35.99936687,5197,4628,4969,4561,4689,4687,4409,4092,4398,4090,4252,3838,3676,3579,3703,3367,3678,4276,3701,3695,3521,3003,3288,3204
Woodland Av,W of Central St,Knox,47000314,TDOT,,93000314,ACTIVE,,-83.93307288,35.98359187,19892,18928,17615,16049,15778,18604,16253,16137,16100,15638,18451,17644,13805,14826,14272,14461,14294,15309,14853,14846,15179,10566,11242,12102
Baxter Av,W of Lee St,Knox,47000315,TDOT,,93000315,ACTIVE,,-83.93166788,35.97880987,11018,9115,11090,8959,9433,10549,8310,9059,9228,9505,7887,7405,7163,7035,6691,7290,7174,7786,7811,8510,8042,7201,7561,7478
Moody Av,E of Chapman Hwy,Knox,47000374,TDOT,,93000374,ACTIVE,,-83.90700887,35.93855686,9995,8475,8098,9563,9690,10370,10025,9034,8685,8810,8465,8558,9415,9149,17799,10269,9407,9008,9098,9297,9777,7918,8381,7803
Moody Av,W of Chapman Hwy,Knox,47000375,TDOT,,93000375,ACTIVE,,-83.90945487,35.93681186,5472,4031,3955,4213,4175,4321,4691,4453,4386,4048,3623,3403,3805,3750,5173,3563,3532,4518,3647,4596,4359,4077,4729,4525
Hendron Chapel Rd,E of Shortcut Rd,Knox,47000376,TDOT,,93000376,ACTIVE,,-83.81808085,35.90215585,4609,4355,4006,4214,4495,4474,4045,3967,4357,3968,3636,3523,3725,3754,3994,3537,3774,4060,4207,4072,3510,3557,3808,3766
Western Av,E of 44th St,Knox,47000377,TDOT,,93000377,ACTIVE,,-83.9809829,35.97376186,51580,51752,53601,53519,49313,54597,51789,48771,46878,47050,48418,45507,43798,44235,41404,42975,43405,44032,45343,44939,44346,38424,52000,51428
Everett Rd,At Loudon Co Line,Knox,47000244,TDOT,,93000244,ACTIVE,,-84.23478397,35.87325683,6641,6924,7082,7323,7345,7565,8088,7601,8033,8833,8324,8637,8855,9435,8473,8964,9998,10742,11504,11149,12629,9922,11502,10754
I-275,N of Baxter Ave,Knox,47000249,TDOT,,93000249,ACTIVE,,-83.93636709,35.97854486,59355,55694,60504,58624,55988,59176,59731,55087,60276,57413,59432,60065,59312,59023,60760,59286,61953,61776,74393,78392,71386,63176,64366,59409
Laurel Av,Between 17th St & 16th St,Knox,47000408,TDOT,,93000408,ACTIVE,,-83.93285188,35.95919286,1118,1420,1594,1099,1099,1144,1065,1239,1129,1130,1350,1292,1274,1056,1078,1034,963,1039,1049,969,980,1354,640,782
Highland Ave,Between 17th St & 16th St,Knox,47000409,TDOT,,93000409,ACTIVE,,-83.93362488,35.96031786,2766,2516,2505,2492,2138,1860,1902,1983,2422,2751,2871,2739,2499,2637,2706,2418,2749,3342,3053,2625,2524,2889,2231,2402
Forest Av,Between 17th St & 16th St,Knox,47000410,TDOT,,93000410,ACTIVE,,-83.93416988,35.96121086,1999,1765,1708,1602,1495,1540,1330,1242,1363,1501,1487,1553,1370,1504,1288,1276,1127,962,882,945,743,807,958,947
Grand Av,E of 17th St,Knox,47000411,TDOT,,93000411,ACTIVE,,-83.93465088,35.96212686,4158,4044,4102,4910,4015,4056,3703,3487,3644,4008,3605,3320,3188,3291,3063,2999,3029,5085,4235,4028,4130,3192,2817,3709
Neyland Dr,NW of Third Creek,Knox,47000413,TDOT,,93000413,ACTIVE,,-83.94011388,35.94387486,21256,22993,21474,19780,17315,19483,19293,19154,19729,17726,17129,17642,14702,14993,13138,16210,15388,14579,15594,17710,20245,17449,12073,13604
Old Rutledge Pk,E of Branville Rd,Knox,47000040,TDOT,,93000040,ACTIVE,,-83.80990385,36.04522588,1081,1264,1117,1196,1130,1228,1322,1388,1362,1263,1374,971,1003,1042,1147,1028,1123,1018,1002,1102,1167,883,1137,1052
Neyland Dr,E of Stadium Dr,Knox,47000161,TDOT,,93000161,ACTIVE,,-83.92269988,35.95491486,18270,22964,22116,21890,20334,22986,20585,20728,20418,18967,18007,18547,14388,13892,12830,13840,14609,14592,15660,16209,18883,12902,9395,13490
Maynardville Pk,Union Co Line,Knox,47000162,TDOT,,93000162,ACTIVE,,-83.90626289,36.16874691,12747,12879,13505,13134,13715,14111,13743,13536,13210,13615,13584,12712,12204,12284,12653,11630,11954,12171,13813,13322,13910,13336,14065,13910
Lindy Dr,E of Chapman Hwy,Knox,47000485,TDOT,,93000485,ACTIVE,,-83.87253386,35.92295486,,,,,,,,,,,,1528,1423,1478,1442,1248,1412,1482,1518,1308,1526,1190,1336,1321
Lonas Dr,E of Hollywood Rd,Knox,47000486,TDOT,,93000486,ACTIVE,,-83.9818549,35.95735486,,,,,,,,,,,,5680,5509,5107,5337,5698,5378,6284,5876,5613,5801,3820,5958,6628
Joe Hinton Rd,N of Middlebrook Pk,Knox,47000522,TDOT,,93000522,ACTIVE,093M284,-84.06983569,35.94644084,,,,,,,,,,,,,,,,,,7884,7963,7635,7711,8107,7491,7232
Broome Rd,S of Middlebrook Pk,Knox,47000524,TDOT,,93000524,ACTIVE,,-84.04945664,35.94012082,,,,,,,,,,,,,,,,,,1497,1512,1742,1741,1546,1427,1617
Bell Rd,E of Brown Gap Rd,Knox,47000518,TDOT,,93000518,ACTIVE,093M031,-83.90122427,36.09141114,,,,,,,,,,,,,,,,,,1201,1213,1277,1198,1175,1316,1184
Thompson School Rd,N of E Emory Rd,Knox,47000519,TDOT,,93000519,ACTIVE,093M218,-83.86315917,36.12496821,,,,,,,,,,,,,,,,,,3231,2630,3004,2885,2972,2865,2974
Fox Lonas Rd,S of Crest Forest Rd,Knox,47000520,TDOT,,93000520,ACTIVE,093M365,-84.08015171,35.93452881,,,,,,,,,,,,,,,,,,4373,4417,3672,6706,4449,3669,3874
Bridgewater Rd,S of Cross Park Dr,Knox,47000521,TDOT,,93000521,ACTIVE,093M028,-84.07228742,35.92511092,,,,,,,,,,,,,,,,,,9617,9713,10228,10993,11518,9073,8973
Walker Springs Rd,W of N Gallaher View Rd,Knox,47000523,TDOT,,93000523,ACTIVE,,-84.06487868,35.9323248,,,,,,,,,,,,,,,,,,3826,3380,3154,3276,3386,3600,3040
McKamey Rd,W of Ball Camp Pk,Knox,47000527,TDOT,,93000527,ACTIVE,,-84.01386655,35.9759349,,,,,,,,,,,,,,,,,,7149,6592,7260,7956,7250,8204,7906
Solway Rd,N of Solway School Rd,Knox,47000558,TDOT,,93000558,ACTIVE,093M281,-84.18507495,35.97593791,,,,,,,,,,,,,,,,,,,,1642,1888,1772,1861,1872
Outlet Dr,W of Lovell Rd,Knox,47000559,TDOT,,93000559,ACTIVE,093M097,-84.15002788,35.90856276,,,,,,,,,,,,,,,,,,4556,4717,5065,5288,5527,5932,6595
Mill Rd,S of Washington Pk,Knox,47000041,TDOT,,93000041,ACTIVE,,-83.87460487,36.04100888,7171,6734,6663,7062,7287,7378,8359,8578,8701,9894,9901,9756,9793,10623,10133,10611,10870,11392,11519,11840,12215,10212,10834,11631
Jacksboro Pk,S of Essary Dr,Knox,47000042,TDOT,,93000042,ACTIVE,,-83.92176788,36.03752988,8011,8632,7840,7840,7885,8007,8040,7620,8083,7497,7747,6952,7284,6638,7171,7028,7612,7550,7770,7685,7763,7349,7716,8113
Central Avnue Pk,S of Emory Rd,Knox,47000043,TDOT,,93000043,ACTIVE,,-84.00620291,36.03970188,5930,7099,6958,7528,6935,7105,6096,6437,6487,6682,7323,7619,7870,8199,7786,7118,7640,7842,7937,8436,8384,6987,8132,7676
E Emory Rd,W of I-75,Knox,47000044,TDOT,,93000044,ACTIVE,,-84.00280791,36.04736088,19557,16523,17203,18185,18729,19273,19817,18021,18524,19329,18481,19271,18534,19184,19838,17305,18301,18484,17716,24091,21557,19143,24546,23640
Heiskell Rd,N of Mayview Dr,Knox,47000045,TDOT,,93000045,ACTIVE,,-84.01466591,36.04755188,5370,4443,4592,4842,6616,7239,6693,6983,6938,7201,6782,7169,7384,5785,5368,5529,4545,5053,5176,5052,4907,4451,4674,4785
W Emory Rd,E of Conner Rd,Knox,47000046,TDOT,,93000046,ACTIVE,,-84.01325991,36.03868188,12592,12720,13022,13733,13666,14041,12893,13679,14185,14366,14139,13914,13821,15042,14581,12784,16830,18354,19478,19488,19683,17479,20792,20563
W Emory Rd,W of Bridgefield Dr,Knox,47000047,TDOT,,93000047,ACTIVE,,-84.06191192,36.01530687,7541,7819,7419,7948,8368,8467,9140,8872,9077,8792,9426,9512,9006,9336,9480,8866,10074,9985,10620,10161,10440,9870,10841,10984
Middlebrook Pk,W of Francis Rd,Knox,47000368,TDOT,,93000368,ACTIVE,,-84.04091083,35.94134431,24933,25957,26303,27650,26384,27923,30620,29144,26025,23069,23557,22164,22975,22140,21783,22028,24196,23768,24974,20492,23069,20287,18142,23853
S Peters Rd,S of Kingston Pk,Knox,47000369,TDOT,,93000369,ACTIVE,,-84.08012292,35.90982185,16598,17957,20062,17913,19401,18999,19162,18901,19988,19131,16343,15324,15139,16566,16386,16360,18910,18589,20087,16561,18989,21779,17603,18927
Lyons View Dr,W of Arrowhead Tr,Knox,47000370,TDOT,,93000370,ACTIVE,,-83.9827719,35.93680586,14196,15050,14837,14237,12488,14508,15776,14148,14572,12533,12630,11210,11000,12381,10626,11530,10540,11545,12686,11819,11827,11234,11300,13079
Keith Av,E of Liberty St,Knox,47000371,TDOT,,93000371,ACTIVE,,-83.96373289,35.96658986,5552,5949,6790,5550,3957,3914,4005,4290,4314,4443,2946,2909,2996,3011,3411,2628,2732,2636,2279,2239,2134,1895,1834,2047
S Gay St,S of W Jackson Ave,Knox,47000372,TDOT,,93000372,ACTIVE,,-83.92067988,35.96873986,8755,6598,6845,6785,3763,3217,3314,3413,3515,3620,3501,3606,3643,3752,1504,1597,1959,2174,2402,1794,2236,1986,2085,2062
Summit Hill Dr,E of Mulvaney St,Knox,47000373,TDOT,,93000373,ACTIVE,,-83.91517134,35.96974463,15153,12444,16982,15727,11692,14596,14890,9956,11149,10733,11111,9796,10112,10415,10257,10031,9732,9995,10030,10510,9140,11115,9018,12029
Tipton Station Rd,E. of Martin Mill Pike,Knox,47000514,TDOT,,93000514,ACTIVE,,-83.89179128,35.88533468,,,,,,,,,,,,,,,,,3000,3258,3291,6017,2798,4389,3647,3881
Cecil Ave,W. of Whittle Springs Road,Knox,47000515,TDOT,,93000515,ACTIVE,,-83.91164231,35.99445992,,,,,,,,,,,,,,,,,8000,5301,5251,4562,5280,4619,5266,5281
Tipton Station Rd,E. of Maryville Pk (SR-33),Knox,47000516,TDOT,,93000516,ACTIVE,093M377,-83.93542038,35.87426966,,,,,,,,,,,,,,,,,2950,1058,1069,1476,1556,1618,1380,1509
Merchant Dr,E of Pleasant Ridge Rd,Knox,47000379,TDOT,,93000379,ACTIVE,,-83.9981869,35.99283387,11172,11384,11868,11153,10816,10398,10963,10884,9803,8959,8590,8854,8472,8453,9229,9359,9043,9634,9898,8478,9402,8925,9155,10209
Cedar Ln,E of Central Avenue Pk,Knox,47000380,TDOT,,93000380,ACTIVE,,-83.9694169,36.01232187,21157,21394,23541,20887,20789,20738,19021,19764,19830,18121,17714,18786,17706,18734,19163,18645,17551,19268,20084,19003,18672,16250,18006,18146
Woodland Av,W of Broadway,Knox,47000381,TDOT,,93000381,ACTIVE,,-83.92203388,35.99337587,15027,13026,14785,14198,13687,13808,12909,12311,12357,12279,12529,11223,11125,11190,10807,10266,10486,10168,10880,10703,10652,7034,6770,7396
Washington Pk,E of Broadway,Knox,47000382,TDOT,,93000382,ACTIVE,,-83.92138788,35.99635187,6017,6258,6707,5836,6642,7243,5972,6541,6240,6058,6267,6455,4910,4971,5125,5320,5531,5501,5704,5450,5175,5052,5356,5297
Washington Pk,N of I-640,Knox,47000383,TDOT,,93000383,ACTIVE,,-83.88756587,36.03367288,13014,12964,13274,13940,14048,14979,15090,15634,18118,18221,18232,17806,17199,19155,19545,20131,19526,21108,21030,20566,20856,19908,20740,20734
Millertown Pk,S of Loves Creek Rd,Knox,47000384,TDOT,,93000384,ACTIVE,,-83.86965787,36.03347788,15874,15943,16105,13815,14985,15479,15157,16458,17187,16479,16408,17873,16633,17002,17260,19295,17201,18816,20482,20914,18428,16843,18004,17806
Asheville Hwy,E of Holston River,Knox,47000385,TDOT,,93000385,ACTIVE,,-83.83039437,36.01495908,37345,36055,36626,39337,39984,35975,39355,34847,36193,34495,31188,31145,31581,32016,32390,32770,34571,35401,36244,35762,36225,32168,35477,40265
N Central St,S of Morelia Ave,Knox,47000457,TDOT,Formerly TDOT site number 991 (093T991),93000457,ACTIVE,,-83.94135589,35.99112987,9678,11653,10926,9245,9797,10091,9573,9936,9289,9568,8766,8370,7979,8797,8772,8951,8660,8882,8186,8023,7833,7343,8465,8313
SR 61,S of Union County Line,Knox,47000452,TDOT,,93000452,ACTIVE,,-83.73633383,36.16361791,,,,,,,1728,1780,1833,2159,2019,2311,2220,2281,2039,2097,2184,2452,2557,2834,2669,2947,3022,3012
Millertown Pk,E of Robin Ben Ln,Knox,47000340,TDOT,,93000340,ACTIVE,,-83.82079185,36.05609189,2412,2436,2288,2551,2533,2728,3028,2758,2767,3052,2984,2760,2445,2521,2477,2578,2474,2940,3138,3121,3310,2940,3243,3303
W Emory Rd,W of Shropshire Dr,Knox,47000048,TDOT,,93000048,ACTIVE,,-84.04875192,36.02011687,14112,14312,15488,14515,14129,14636,13693,13577,13790,12529,12992,12725,12333,12378,13327,12019,13572,13708,13830,8562,8882,7887,9326,8494
Clinton Hwy,S of Old Clinton Hwy,Knox,47000049,TDOT,,93000049,ACTIVE,,-84.03264391,36.01036787,32314,28973,31950,33695,36633,45842,31769,31275,30279,28302,28256,29186,28142,29297,30371,27026,29596,29855,30092,26147,29281,24426,25986,27321
Cross Park Dr,W of Park Village Rd,Knox,47000551,TDOT,,93000551,ACTIVE,093M026,-84.08496272,35.92289179,,,,,,,,,,,,,,,,,,7611,7490,7870,7739,8585,6774,7049
Park Village Rd,S of Dutchtown Rd,Knox,47000552,TDOT,,93000552,ACTIVE,093M366,-84.08755473,35.92589779,,,,,,,,,,,,,,,,,,8643,8729,8390,15888,10293,8454,8853
Mabry Hood Rd,N or Sherrill Blvd,Knox,47000553,TDOT,,93000553,ACTIVE,093M272,-84.12499682,35.92218379,,,,,,,,,,,,,,,,,,,578,424,606,517,395,476
Bob Kirby Rd,W of Middlebrook Pike,Knox,47000554,TDOT,,93000554,ACTIVE,093M269,-84.1187188,35.94612584,,,,,,,,,,,,,,,,,,3368,3402,3607,4178,4306,4490,4566
Snyder Rd,W of Lovell Rd,Knox,47000555,TDOT,,93000555,ACTIVE,093M274,-84.15097888,35.9240333,,,,,,,,,,,,,,,,,,2802,2989,3019,3013,2688,4023,3850
Buttermilk Rd,W of Everett Rd,Knox,47000556,TDOT,,93000556,ACTIVE,,-84.24972611,35.88747672,,,,,,,,,,,,,,,,,,990,1000,861,707,818,920,726
Sam Lee Rd,W of Solway Rd,Knox,47000557,TDOT,,93000557,ACTIVE,093M278,-84.17078492,35.95617587,,,,,,,,,,,,,,,,,,436,415,646,1246,1258,1906,2029
Sevierville Pike,E of Lindy Ave,Knox,47000595,TDOT,,93000595,ACTIVE,,-83.86668122,35.92628877,,,,,,,,,,,,,,,,,,1829,1915,1714,2257,1865,1915,1894
Whittle Springs Rd,N of Cecil Ave,Knox,47000597,TDOT,,93000597,ACTIVE,,-83.9099533,35.99580093,,,,,,,,,,,,,,,,,,4803,4875,5193,5358,4888,4722,5177
Bishop Rd,N of E Emory Rd,Knox,47000596,TDOT,,93000596,ACTIVE,093M211,-83.98890148,36.05646407,,,,,,,,,,,,,,,,,,2680,2707,2734,2721,2683,2817,2786
York Rd,SW of Hill Rd,Knox,47000387,TDOT,,93000387,ACTIVE,,-83.9523119,36.11972489,162,118,100,402,385,396,422,365,376,357,362,410,374,401,360,390,346,374,126,131,151,109,114,115
Turkey Creek Rd,E of Loudon Co,Knox,47000305,TDOT,,93000305,ACTIVE,,-84.16491394,35.85143583,1040,1777,1381,1457,1441,1484,1629,1487,1708,1828,1526,1676,1831,1915,1823,2050,2213,2423,2969,2889,2664,2264,4453,4404
Main St,W of Henley St,Knox,47000267,TDOT,,93000267,ACTIVE,,-83.92122888,35.95999986,12712,14592,15030,16933,10978,15778,10355,9606,9659,9949,8880,7955,6797,6784,6988,6711,7398,7580,6387,6948,6878,6140,7117,6526
Main St,E of Walnut St,Knox,47000268,TDOT,,93000268,ACTIVE,,-83.91788788,35.96115986,7323,6339,6261,6504,5965,6376,6276,6421,5748,5920,5266,5008,4680,4820,4965,4250,4101,4229,4271,4200,4677,4153,2749,2884
Washington Pk,N of Shipe Rd,Knox,47000018,TDOT,,93000018,ACTIVE,,-83.81930286,36.08993689,2958,3265,3285,3309,3141,3655,3373,3804,4044,3981,3633,3600,3615,3553,3461,3492,3562,3749,3800,3731,3812,3637,3456,3484
Maynardville Pk,NE of Scenic View Dr,Knox,47000020,TDOT,,93000020,ACTIVE,,-83.92014889,36.09157589,16261,17982,18113,17418,18030,18707,17360,16502,16980,16968,16645,16050,16535,15646,14905,15179,15634,15790,16154,17116,24987,15102,17075,16887
Hill Rd,N of McCloud Rd,Knox,47000021,TDOT,,93000021,ACTIVE,,-83.93749589,36.09510789,2260,2897,2783,2704,2575,3258,3323,3501,3298,3425,3585,3472,3463,3342,3529,3308,3969,3831,4204,4207,3869,3141,3663,3711
N Broadway,S of Old Broadway,Knox,47000052,TDOT,,93000052,ACTIVE,,-83.92412688,36.01238687,26428,26818,28517,27312,27030,27301,24235,24468,25495,23227,25068,22488,20098,23160,21995,21444,21799,21510,21645,20250,21037,15315,18242,16859
Greenway Dr,E of Ena Rd,Knox,47000053,TDOT,,93000053,ACTIVE,,-83.91817588,36.02290988,1355,1524,1533,1406,1563,1604,1434,1394,1498,1438,1436,1567,1171,1137,1300,1037,1201,1168,1260,1079,1146,1285,1051,1112
Tazewell Pk,E of Felix Rd,Knox,47000054,TDOT,,93000054,ACTIVE,,-83.92049188,36.02903688,16038,14211,15736,15018,15638,15949,16039,15759,15288,15220,15484,14654,15223,14726,15459,14610,15887,16873,17087,16580,16931,14856,15302,15787
Harris Rd,SE of Woods Creek Rd,Knox,47000055,TDOT,,93000055,ACTIVE,,-83.84704286,36.03725788,667,728,726,728,623,803,883,753,700,767,739,725,739,773,835,960,879,928,955,911,975,784,1213,901
Rutledge Pk,W of I-640,Knox,47000056,TDOT,,93000056,ACTIVE,,-83.86340486,36.01582588,18200,19433,17641,17599,17296,18044,19094,18333,18015,19003,18973,16679,16632,18312,18226,19466,22301,22744,24782,21224,20613,18313,21875,21116
Asheville Hwy,W of Carta Rd,Knox,47000057,TDOT,,93000057,ACTIVE,,-83.85859072,36.00467232,15433,16875,15349,15629,15791,15953,12616,11899,13041,11348,14350,13663,11209,9924,10416,10025,10125,9759,9140,7440,8428,9617,10098,9987
Asheville Hwy,E of Molly Bright Rd,Knox,47000058,TDOT,,93000058,ACTIVE,,-83.74330618,36.02474525,24859,22589,24717,21629,23260,24672,23997,23452,22162,22827,21812,21673,23765,22082,22241,23058,20185,20386,23094,23115,24039,20616,20557,22409
Old Clinton Pk Rd,At Anderson Co Line,Knox,47000185,TDOT,,93000185,ACTIVE,,-84.06303592,36.03214887,698,1078,946,1135,981,1135,1112,1042,972,1137,1081,803,786,821,967,996,1117,703,1020,670,716,643,997,1010
W Brushy Valley Dr,At Anderson Co Line,Knox,47000186,TDOT,,93000186,ACTIVE,,-84.06893093,36.04607387,687,687,750,851,738,798,844,784,742,731,800,874,813,726,786,812,849,705,736,1787,1805,906,1091,1032
Bell Campground Rd,S of Bullrun Valley Dr,Knox,47000187,TDOT,,93000187,ACTIVE,,-84.07561793,36.05340388,289,322,312,414,275,328,335,271,331,300,298,294,307,290,300,336,332,318,335,345,316,369,360,325
Raccoon Valley Dr,N of Beech Grove Rd,Knox,47000198,TDOT,,93000198,ACTIVE,,-83.9353219,36.17883391,558,493,527,545,552,617,557,603,601,568,607,551,513,580,606,442,558,515,520,554,628,583,608,585
Loyston Rd,N of Thomas Weaver Rd,Knox,47000199,TDOT,,93000199,ACTIVE,,-83.92594289,36.16658891,1803,1726,1876,2018,1867,1947,1817,1752,1626,1568,1380,1597,1503,1675,1374,1420,1260,1320,1440,1331,1693,1475,1255,1315
Corryton Rd,At Union Co Line,Knox,47000206,TDOT,,93000206,ACTIVE,,-83.79930585,36.16608691,1445,1443,1509,1463,1448,1499,1680,1562,1597,1526,1473,1320,1249,1286,1336,1358,1268,1464,1424,1548,1370,1443,1524,1386
Rutledge Pk,At Grainger Co Line,Knox,47000213,TDOT,,93000213,ACTIVE,,-83.71748668,36.1321474,8600,7646,8102,8342,8481,8620,8514,8417,8696,8535,8655,8845,9405,8639,8801,7620,7696,10733,11125,10876,11049,10981,11074,10696
Andrew Johnson Hwy,At Jefferson Co Line,Knox,47000218,TDOT,,93000218,ACTIVE,,-83.69302582,36.05765289,28265,20801,19950,23512,18340,17449,18602,16685,18282,16967,16798,16307,16603,16466,17134,16472,18133,18597,19341,17115,17916,15538,18274,16988
Asheville Hwy,At Jefferson Co Line,Knox,47000221,TDOT,,93000221,ACTIVE,,-83.67352481,36.01789588,4574,4855,4497,4493,4488,4680,4605,4361,4245,3918,3949,3828,3969,3673,3607,3637,3964,3827,4168,3977,3757,4091,4008,3691
Coleman Rd,S of Lonas Dr,Knox,47000488,TDOT,,93000488,ACTIVE,093C494,-83.9928509,35.95030786,,,,,,,,,,,,2321,2283,2006,2028,2247,2103,2373,2410,2087,2288,2635,2378,2844
Lake Loudoun Blvd,N of Philllip Fulmer Way,Knox,47000489,TDOT,,93000489,ACTIVE,,-83.92707788,35.95084786,,,,,,,,,,,,5384,7119,6855,7061,7320,7503,7122,7343,7481,8608,7046,7398,4997
N Chilhowee Dr,N of Asheville Hwy,Knox,47000491,TDOT,,93000491,ACTIVE,,-83.85044086,36.00757387,,,,,,,,,,,,5183,5338,5346,4950,5101,6059,5205,5605,4357,5490,5380,5356,5884
Valley View Dr,E of Saylor Ct,Knox,47000587,TDOT,,93000587,ACTIVE,,-83.9102873,36.01798798,,,,,,,,,,,,,,,,,,2580,2852,2872,2734,2438,2363,2337
Deane Hill Dr,W of Kingston Pk,Knox,47000588,TDOT,,93000588,ACTIVE,,-84.00941255,35.93023879,,,,,,,,,,,,,,,,,,,,6609,5795,5146,6314,4867
Montview Rd,S of Kingston Pk,Knox,47000589,TDOT,,93000589,ACTIVE,,-84.04190562,35.92600979,,,,,,,,,,,,,,,,,,19445,19639,16544,15937,13628,14506,16852
Buffat Mill Rd,W of North Hills Blvd,Knox,47000590,TDOT,,93000590,ACTIVE,,-83.906269,36.00479528,,,,,,,,,,,,,,,,,,2057,2078,2299,2390,2063,1959,2192
Prosser Rd,S of Buffat Mill Rd,Knox,47000591,TDOT,,93000591,ACTIVE,,-83.89131226,36.00845495,,,,,,,,,,,,,,,,,,2371,2216,2524,2829,2427,2277,2497
McDonald Dr,N of Boyds Bridge Pk,Knox,47000592,TDOT,,93000592,ACTIVE,,-83.8663322,35.9867629,,,,,,,,,,,,,,,,,,1488,1503,1498,1544,1371,975,894
Woodlawn Pk,E of Chapman Hwy,Knox,47000593,TDOT,,93000593,ACTIVE,,-83.90785731,35.94450081,,,,,,,,,,,,,,,,,,2984,3247,2392,2215,2438,2519,2511
Walnut St,N of Union Ave,Knox,47000594,TDOT,,93000594,ACTIVE,,-83.92067833,35.96486586,,,,,,,,,,,,,,,,,,2289,2618,2644,3384,2274,2215,2191
W Copeland Dr,W of Heiskell Rd,Knox,47000572,TDOT,,93000572,ACTIVE,093M212,-84.03148158,36.05378407,,,,,,,,,,,,,,,,,,1440,1454,1564,1534,1229,1681,1553
Pelleaux Rd,N of E Emory Rd,Knox,47000573,TDOT,,93000573,ACTIVE,093M208,-83.95433039,36.07749111,,,,,,,,,,,,,,,,,,2212,2432,2416,2439,2369,2631,2381
Schaad Rd,W of Oak Ridge Hwy,Knox,47000574,TDOT,,93000574,ACTIVE,,-84.04648262,35.98563692,,,,,,,,,,,,,,,,,,2316,1433,1370,2298,2360,2252,2227
Ray Mears Blvd,E of Downtown West Blvd,Knox,47000575,TDOT,,93000575,ACTIVE,,-84.04907364,35.92262278,,,,,,,,,,,,,,,,,,8182,6865,7427,7341,8542,6856,7302
North Mall Rd,W of Millertown Pk,Knox,47000576,TDOT,,93000576,ACTIVE,,-83.87299821,36.03094,,,,,,,,,,,,,,,,,,6869,7279,6908,6890,6362,7036,6423
South Mall Rd,W of Millertown Pk,Knox,47000577,TDOT,,93000577,ACTIVE,,-83.87576022,36.029656,,,,,,,,,,,,,,,,,,6592,6139,6747,6523,5790,6364,6294
Ball Camp Pk,W of Bakertown Rd,Knox,47000578,TDOT,,93000578,ACTIVE,,-84.08607772,35.96537288,,,,,,,,,,,,,,,,,,6200,6262,5326,6421,6524,7000,5932
Karns Valley Dr,N of Westcott Blvd,Knox,47000579,TDOT,,93000579,ACTIVE,,-84.13479983,35.96640389,,,,,,,,,,,,,,,,,,2617,2991,3419,6229,7171,8412,8929
Concord Rd,N of Northshore Dr,Knox,47000455,TDOT,,93000455,ACTIVE,,-84.14374794,35.86594083,,,,,,,,9125,9399,13128,8232,9390,9072,9996,10402,11048,11529,11898,12462,10070,11530,11464,12037,11905
Kingston Pk,W of Neyland Dr,Knox,47000158,TDOT,,93000158,ACTIVE,,-83.95288089,35.95087586,32216,33024,32484,31702,29754,31182,31248,30086,30989,31919,26481,23998,23995,24715,22443,26659,25779,24749,26238,25395,25640,22522,24657,26454
Kingston Pk,W of Forrest Park Blvd,Knox,47000159,TDOT,,93000159,ACTIVE,,-83.9838479,35.94127786,22123,24197,22468,22443,22279,22873,19045,20140,19156,19195,20834,20910,20918,17922,16568,19666,18455,19170,20391,18141,19049,17432,16770,16586
Neyland Dr,S of Kingston Pk,Knox,47000160,TDOT,,93000160,ACTIVE,,-83.94663789,35.95048886,13382,15084,19632,18312,16249,17040,15084,14160,13694,13917,15339,15574,13342,12166,12830,12958,14422,15322,16118,16058,15032,13834,11766,13814
Knoxville Zoo Dr,E of Prosser Rd,Knox,47000580,TDOT,,93000580,ACTIVE,,-83.88158424,36.00316194,,,,,,,,,,,,,,,,,,2527,2552,1951,3062,2719,2721,3082
Tazewell Pk,S of N Broadway,Knox,47000581,TDOT,,93000581,ACTIVE,,-83.92448933,36.02179749,,,,,,,,,,,,,,,,,,,16974,17144,17315,15376,16145,15967
W Emory Rd,E of Oak Ridge Hwy,Knox,47000582,TDOT,,93000582,ACTIVE,093M361,-84.1643119,35.98181092,,,,,,,,,,,,,,,,,,837,845,831,785,765,818,785
Blackstock Ave,E of Western Ave,Knox,47000583,TDOT,,93000583,ACTIVE,,-83.93042636,35.96489086,,,,,,,,,,,,,,,,,,1108,1425,1439,1009,1426,1071,1362
Corteland Dr,S of Broome Rd,Knox,47000525,TDOT,,93000525,ACTIVE,,-84.05410965,35.93748881,,,,,,,,,,,,,,,,,,440,444,449,415,399,447,367
Robinson Rd,N of Middlebrook Pk,Knox,47000526,TDOT,,93000526,ACTIVE,,-84.05661365,35.94560783,,,,,,,,,,,,,,,,,,8410,8494,9094,7690,6800,6662,6576
Island Home Ave,E of South Haven Rd,Knox,47000528,TDOT,,93000528,ACTIVE,,-83.88715626,35.95697784,,,,,,,,,,,,,,,,,,2311,2334,2536,2291,2400,2547,2328
Maloney Rd,E of Alcoa Hwy,Knox,47000529,TDOT,,93000529,ACTIVE,093M259,-83.94956441,35.90547373,,,,,,,,,,,,,,,,,,825,621,1010,1089,967,1015,2047
Jacksboro Pk,E of N Broadway,Knox,47000530,TDOT,,93000530,ACTIVE,,-83.92515933,36.04842305,,,,,,,,,,,,,,,,,,5408,5462,5809,5960,5616,5858,5788
Nubbin Ridge Rd,W of Davis Ln,Knox,47000531,TDOT,,93000531,ACTIVE,093M010,-84.05238965,35.89474672,,,,,,,,,,,,,,,,,,2003,2023,1513,1717,1813,2088,1830
North Winston Rd,S of I-40,Knox,47000532,TDOT,,93000532,ACTIVE,,-84.04516263,35.92681879,,,,,,,,,,,,,,,,,,5000,5050,5450,4855,5981,4363,4497
Downtown West Blvd,S of Kingston Pk,Knox,47000533,TDOT,,93000533,ACTIVE,,-84.05088164,35.92309578,,,,,,,,,,,,,,,,,,10080,9696,10448,9057,12654,8208,7977
Ailor Ave,E of N Twenty First St,Knox,47000534,TDOT,,93000534,ACTIVE,,-83.94079338,35.96412986,,,,,,,,,,,,,,,,,,10339,10442,9812,9006,8585,8457,8129
N Twenty First St,S of Western Ave,Knox,47000535,TDOT,,93000535,ACTIVE,,-83.94437539,35.96571387,,,,,,,,,,,,,,,,,,3076,2872,3517,2997,2948,3218,3319
Dale Ave,E of N Seventeenth St,Knox,47000536,TDOT,,93000536,ACTIVE,,-83.93445637,35.96355486,,,,,,,,,,,,,,,,,,6962,7032,7496,7595,7834,6701,7129
Bob Gray Rd,W of Hickey Rd,Knox,47000584,TDOT,,93000584,ACTIVE,093M359,-84.13553984,35.93263281,,,,,,,,,,,,,,,,,,2862,2891,2903,3227,3286,3369,2995
Bradshaw Gardens Dr,S of Clinton Hwy,Knox,47000585,TDOT,,93000585,ACTIVE,,-83.97759846,35.99906994,,,,,,,,,,,,,,,,,,,3199,2801,3638,3054,3493,3170
Adair Dr,W of N Broadway,Knox,47000586,TDOT,,93000586,ACTIVE,,-83.92952635,36.02368899,,,,,,,,,,,,,,,,,,4946,4995,5611,5486,5269,5453,5494
I-275,S of I-640,Knox,47000250,TDOT,,93000250,ACTIVE,,-83.9537311,35.99705284,64240,59142,65740,62921,56612,60680,61488,58470,64392,61671,60336,59754,58964,58826,60304,58358,59992,60852,71126,73447,67702,60119,63125,54478
I-640,W of Hague Rd Overpass,Knox,47000251,TDOT,,93000251,ACTIVE,,-83.94212057,36.00792973,66494,67827,69542,72460,75248,75225,75027,73732,79379,70447,70354,68943,68732,74811,73239,75149,76232,78865,79350,82474,97988,87049,89826,98829
I-40,W of Winston Rd Overpass,Knox,47000252,TDOT,,93000252,ACTIVE,,-84.04864709,35.92738435,146565,135943,148302,145782,145106,145782,147202,146793,154620,154373,173246,171930,174605,178015,186045,177328,190853,196214,197343,201738,206396,168707,173049,214055
I-40,E of Cedar Bluff Rd,Knox,47000253,TDOT,,93000253,ACTIVE,,-84.0743497,35.92176725,140196,137328,150325,144111,148562,146384,149149,150231,151974,151222,166054,164334,166719,170480,178708,170466,185021,188060,189189,194438,206559,152641,166251,207271
I-40,W of Pellissippi Pkwy,Knox,47000254,TDOT,,93000254,ACTIVE,,-84.13264557,35.90892592,103210,101860,109818,105182,106912,109842,113792,114815,112206,110558,123005,121763,121995,125179,128263,121655,131016,136252,140923,139538,142671,100704,114045,163925
I-40,Alcoa Hwy & 17th St,Knox,47000255,TDOT,,93000255,ACTIVE,,-83.93899148,35.96322004,126719,108942,122106,112647,101284,105739,108425,114819,120284,122693,127588,127987,132049,131937,143662,144577,154006,154696,171218,157487,162292,122095,139697,149139
Middlebrook Pk,S of Ball Camp Pk,Knox,47000088,TDOT,,93000088,ACTIVE,,-84.11869994,35.95125585,11455,9757,10698,11637,11732,10214,10520,11005,12351,15373,16083,15844,17877,16607,15905,15354,16998,18480,19026,16950,18891,17543,22947,18465
Oak Ridge Hwy,W of 44th St,Knox,47000092,TDOT,,93000092,ACTIVE,,-83.9859199,35.97246386,31417,25709,27587,26992,26398,28314,27733,27124,25944,25006,23338,24766,23321,24021,24742,26291,26264,26559,26825,21960,31558,28629,23666,23406
Henley St,N side of Henley St Bridge,Knox,47000093,TDOT,,93000093,ACTIVE,,-83.91860688,35.95728086,45662,36002,36000,46315,41925,43870,43143,40787,43064,38813,39229,40790,42099,42487,42558,43104,43225,49896,35774,34281,33295,29566,24149,23883
S Gay St,N side of Gay St Bridge,Knox,47000094,TDOT,,93000094,ACTIVE,,-83.91499688,35.95942686,15754,12316,13565,12403,12999,13601,9230,10880,8912,8586,7767,8383,8634,8807,8828,8993,9012,5205,5297,5556,6294,6704,6215,7772
Ebenezer Rd,S of Kingston Pk,Knox,47000466,TDOT,,93000466,ACTIVE,093M006,-84.07629492,35.90862285,,,,,,,,,,,,6563,5988,6391,6321,5845,6576,5609,5866,4111,4526,5562,4240,4491
E Beaver Creek Dr,N of Central Avenue Pk,Knox,47000467,TDOT,,93000467,ACTIVE,,-83.9915549,36.04300888,,,,,,,,,,,,9950,9863,9461,9229,9004,9365,10260,9938,10343,10500,9324,10459,10421
Karns Valley Dr,N of Oak Ridge Hwy,Knox,47000468,TDOT,,93000468,ACTIVE,093M382,-84.13708794,35.98011786,,,,,,,,,,,,3533,3738,3943,4061,4183,4216,4258,4336,4894,6814,7344,7904,8027
Dry Gap Pk,N of Cunningham Rd,Knox,47000469,TDOT,,93000469,ACTIVE,,-83.9713089,36.05686188,,,,,,,,,,,,7686,7397,8233,8752,8246,9344,9979,10777,10804,10746,10405,10452,11571
Canton Hollow Rd,S of Deep Woods Ln,Knox,47000470,TDOT,,93000470,ACTIVE,093M006,-84.13228494,35.88672884,,,,,,,,,,,,4425,4739,4577,4553,4291,4379,4334,4288,4034,4048,3595,6275,5245
Carter Rd,W of Tazewell Pk,Knox,47000471,TDOT,,93000471,ACTIVE,093M308,-83.88048287,36.07760189,,,,,,,,,,,,3506,3336,3428,3301,3243,3612,3636,3701,3767,3995,3548,3725,3794
Brakebill Rd,N of Strawberry Plains Pike,Knox,47000472,TDOT,,93000472,ACTIVE,,-83.77643384,36.00756688,,,,,,,,,,,,3384,3202,3193,3405,3507,3385,3278,3377,3844,3417,3034,3319,3996
Fox Rd,N of Emory Church Rd,Knox,47000473,TDOT,,93000473,ACTIVE,,-84.10655593,35.88487684,,,,,,,,,,,,2255,2206,2526,2662,2850,2740,3066,3161,3262,3393,3621,4103,4073
Woodson Dr,E of Hilltop Ln,Knox,47000474,TDOT,,93000474,ACTIVE,093M051,-83.93706388,35.92259085,,,,,,,,,,,,1318,1410,1490,1795,1572,1999,1615,1717,1289,1311,1123,1248,1269
Everett Rd,E of N Watt Rd,Knox,47000475,TDOT,,93000475,ACTIVE,093M351,-84.22942196,35.88545884,,,,,,,,,,,,1804,1664,1920,1752,2128,2128,2184,2551,2350,1585,2336,1894,2622
Asbury Rd,S of Archie Weigel Ln,Knox,47000476,TDOT,,93000476,ACTIVE,,-83.84589686,35.96630087,,,,,,,,,,,,548,596,598,521,591,471,503,491,691,878,710,740,880
E Emory Rd,E of Norris Fwy,Knox,47000477,TDOT,,93000477,ACTIVE,,-83.93266689,36.08424889,,,,,,,,,,,,12500,10328,9756,11826,11091,12979,14367,15450,14250,14741,12840,13767,13892
Harrell Rd,N of Oak Ridge Hwy,Knox,47000478,TDOT,,93000478,ACTIVE,093M286,-84.07796493,35.99054586,,,,,,,,,,,,860,4854,5525,5383,5230,5323,5702,5672,5815,6242,5684,6512,6142
Smith Rd,W of Grigsby Chapel Rd,Knox,47000479,TDOT,,93000479,ACTIVE,093M076,-84.19432195,35.88082884,,,,,,,,,,,,5042,4419,4509,4121,4890,4915,4578,5304,5455,5230,5263,6258,5954
S Concord St,N of Kingston Pk,Knox,47000480,TDOT,,93000480,ACTIVE,,-83.94709789,35.95197386,,,,,,,,,,,,7217,8428,7223,6317,7527,7904,8493,8028,7321,7207,6827,6430,6698
Dutch Valley Dr,E of Bruhin Rd,Knox,47000481,TDOT,,93000481,ACTIVE,,-83.94526989,36.00952987,,,,,,,,,,,,5429,5106,5461,5754,5089,5424,5853,6235,5957,5729,5235,5472,5920
South Haven Rd,N of McClung Rd,Knox,47000483,TDOT,,93000483,ACTIVE,,-83.88801287,35.95257086,,,,,,,,,,,,1374,1310,1384,1527,1398,1747,1680,1650,1603,1646,1651,1667,1461
Brooks Ave,E of Biddle St,Knox,47000484,TDOT,,93000484,ACTIVE,,-83.88404987,35.97633287,,,,,,,,,,,,2169,1658,1734,2289,2147,2327,2256,2370,1837,2530,2302,2251,2311
W Martin Mill Pk,S of Chapman Hwy,Knox,47000156,TDOT,,93000156,ACTIVE,,-83.91134087,35.93992186,5363,4450,4417,4499,4271,4579,4404,4178,4050,3895,4058,3489,3647,2610,3467,2897,3746,4113,4252,4614,5044,3435,4446,3664
Cumberland Av,E of Alcoa Hwy,Knox,47000157,TDOT,,93000157,ACTIVE,,-83.94179151,35.95292478,39070,40895,40949,41002,41005,36735,37388,34597,32852,37144,32675,36431,31808,35339,36399,35802,35822,36732,37099,37181,37738,33511,,
McFee Rd,S of Old Stage Rd,Knox,47000435,TDOT,,93000435,ACTIVE,,-84.19756395,35.85693883,,1603,1651,1718,1772,1830,2114,2348,2330,2400,1671,2036,2137,2357,2255,2440,2571,1928,3110,3220,3443,3181,3340,5580
Virtue Rd,S of Broadwood Dr,Knox,47000436,TDOT,,93000436,ACTIVE,,-84.18379395,35.85986383,,1867,1760,2147,2725,2865,2951,3593,3993,3743,3233,3481,3422,3727,3239,3651,4018,3988,4264,4820,4823,4871,5115,5059
Westland Dr,E of Northshore Dr,Knox,47000437,TDOT,,93000437,ACTIVE,,-84.11135893,35.86762184,,5359,5238,6119,5589,5969,6706,7278,7257,7475,5865,6706,6634,7243,7353,8156,7834,8475,8246,8409,8937,8035,8437,11212
Inskip Rd,E of Fennel Rd,Knox,47000438,TDOT,,93000438,ACTIVE,,-83.96249889,36.01078387,,6926,6626,7024,6528,6577,7010,7037,7188,6919,7051,6400,6371,6992,7130,6902,7087,7251,7025,7364,7565,6330,6735,6454
Beaumont Ave,W of Boyd St,Knox,47000440,TDOT,,93000440,ACTIVE,,-83.94177189,35.97551586,,,7930,5639,5050,5202,4619,4786,4691,4178,4229,4241,4414,5011,4394,4354,4007,4469,4276,4532,4430,2643,2775,2811
Boyd Station Rd,E of Willow Cove Way,Knox,47000444,TDOT,,93000444,ACTIVE,093M380,-84.17335095,35.84801983,,,1030,1839,2177,2528,3372,3330,3805,3919,2892,3035,2949,3214,3357,3707,3258,3240,3272,3290,3785,3621,3802,3760
Corryton Rd,N of Washington Pk,Knox,47000439,TDOT,,93000439,ACTIVE,,-83.77224385,36.14228491,,,2060,2122,1849,1757,1706,1676,1641,1524,1554,1569,1692,1534,1549,1320,1502,1683,1631,1658,1337,1610,1716,1836
Council Pl,E of Blount Ave,Knox,47000441,TDOT,,93000441,ACTIVE,,-83.91201388,35.95737486,,,6080,3314,3989,4108,4208,3912,4711,4665,4805,2860,2946,2249,2345,2263,2434,2442,3101,2522,3295,2813,2757,3467
Grigsby Chapel Rd,W of Campbell Station Rd,Knox,47000442,TDOT,,93000442,ACTIVE,,-84.17620995,35.89311984,,,6280,13350,13477,14408,14607,14613,13185,14830,14788,14162,14367,14295,14041,15522,15512,14895,15630,16634,15929,14448,16765,16401
Old Stage Rd,E of Triple Crown Blvd,Knox,47000443,TDOT,,93000443,ACTIVE,,-84.21653996,35.85988483,,,520,761,706,848,794,846,860,759,839,750,773,930,856,881,900,2462,2958,4076,4633,3663,4712,4762
S Northshore Dr,W of Tooles Bend Rd,Knox,47000287,TDOT,,93000287,ACTIVE,,-84.04604891,35.87468284,11292,11981,13161,14099,13325,14731,13141,14294,14005,12603,13148,13984,12898,13611,14516,14108,13133,13879,14018,13676,13333,13713,15648,15142
Neyland Dr,E of Gay St,Knox,47000422,TDOT,,93000422,ACTIVE,,-83.91361988,35.96232086,8000,6485,7151,8199,8181,8226,7829,7130,7344,7564,6527,6628,6373,5122,5173,4776,4919,5153,5026,4898,4952,13490,8421,11555
W Gov John Sevier Hwy,E of Alcoa Hwy,Knox,47000289,TDOT,,93000289,ACTIVE,,-83.94840188,35.88560285,17887,19201,19323,19627,18731,20802,20498,19419,19781,18501,19413,17847,19417,17963,18907,18544,20403,18764,20290,21408,21397,19001,20094,19873
Alcoa Hwy,S of Cherokee Tr,Knox,47000317,TDOT,,93000317,ACTIVE,,-83.9481902,35.93514863,50262,43749,46680,46921,47223,46896,47651,46367,46505,47476,47448,46139,47189,43415,46786,46320,47777,46844,47961,49973,49603,44047,46249,45740
Sutherland Av,E of Concord St,Knox,47000318,TDOT,,93000318,ACTIVE,,-83.94825589,35.95923386,9054,12560,10623,11225,11391,12028,11675,9929,10105,10408,8305,8945,9801,9833,9270,10252,10671,10992,11692,11750,11417,10947,10389,11914
Texas Av,,Knox,47000319,TDOT,,93000319,ACTIVE,,-83.96523289,35.97711986,7264,7587,7653,7163,7449,7965,7833,7870,7199,7218,7528,6693,7106,6309,6920,7433,7952,7969,6950,6651,7035,6956,8525,8431
Heiskell Av,W of I-275,Knox,47000320,TDOT,,93000320,ACTIVE,,-83.95411089,35.98982287,18778,14045,16720,17943,12159,12524,12868,12471,11480,11470,11634,11183,10759,11579,11219,12433,12394,12734,13322,11333,13518,11568,12922,12417
Atlantic Av,E of I-275,Knox,47000321,TDOT,,93000321,ACTIVE,,-83.94898389,35.99350787,16153,18233,16890,16959,15538,15985,15563,16030,13714,13932,13822,13406,13206,14844,14606,15302,17788,16551,20128,14897,15046,17131,18868,18660
Inskip Rd,S of Charles Dr,Knox,47000322,TDOT,,93000322,ACTIVE,,-83.95269289,36.02040987,5186,5812,5835,4581,5129,5402,5434,5553,6050,5556,5639,5101,4900,5318,5859,5191,5502,5780,5857,6128,6128,5265,5739,5676
Henley St Connector,SB -- N of Tunnel,Knox,47000416,TDOT,,93000416,ACTIVE,,-83.92465546,35.96529675,19383,14401,16406,18351,19054,19756,15968,14387,17437,17357,14270,14061,14357,14458,7575,11213,14243,14942,13484,16096,17108,13188,13095,15416
Henley St Connector,NB -- N of Tunnel,Knox,47000417,TDOT,,93000417,ACTIVE,,-83.92525288,35.96519186,15334,10927,12326,13088,11444,12346,12012,11084,13885,12323,11539,11083,11278,11616,5844,8798,11940,9259,12053,13471,16062,13347,14630,15761
I-40 Off Ramp,,Knox,47000418,TDOT,,93000418,ACTIVE,,-83.92802088,35.96505186,6176,7685,7461,5739,6180,7018,5767,5221,5378,5539,5350,5510,6426,5361,5134,5253,5274,5303,5373,5342,5852,5197,3844,3802
N Hall of Fame Dr,E of Broadway,Knox,47000177,TDOT,,93000177,ACTIVE,,-83.91937588,35.98635187,21060,19562,20830,20650,21818,22486,19251,21224,21081,21713,9941,14180,15452,15819,17297,15669,17500,17137,17265,17308,15812,13243,13784,13632
N Northshore Dr,S of Papermill Rd,Knox,47000328,TDOT,,93000328,ACTIVE,,-84.0029909,35.93733785,29319,27292,30021,29645,29853,29791,30315,30949,29673,27907,26296,31896,27693,28753,29925,29653,26110,27284,29740,29191,27615,27831,30660,24445
I-140,S of I-40/75,Knox,47000419,TDOT,,93000419,ACTIVE,,-84.12021448,35.90721859,43004,40873,42868,53689,55742,57820,56707,48464,51374,50628,56968,58563,59507,64204,62219,60854,63353,63986,64553,65199,64579,57346,60213,65390
Raccoon Valley Dr,W of Depot Rd,Knox,47000028,TDOT,,93000028,ACTIVE,,-84.06238193,36.07606388,3106,3126,3260,3712,3696,3804,3560,3457,3356,3135,3290,3681,3442,3013,3583,3406,3514,3390,3880,3868,3833,3989,3767,3726
Heiskell Rd,S of Racoon Valley Dr,Knox,47000029,TDOT,,93000029,ACTIVE,,-84.05152392,36.07874188,2078,2438,1976,2440,2369,2662,2248,2237,2223,2146,2181,2409,2218,2108,2283,2223,2328,2134,2294,2239,2357,2303,2311,2183
Washington Pk,E of Murphy Rd,Knox,47000033,TDOT,,93000033,ACTIVE,,-83.87043887,36.05516888,7420,6822,6642,7437,6499,7009,7317,7824,8845,9110,8635,8277,8887,8626,8480,8649,8933,9166,9095,9013,9021,7746,8162,8531
Ellistown Rd,N of Millertown Pk,Knox,47000034,TDOT,,93000034,ACTIVE,,-83.81227985,36.06314689,1213,1308,1174,1264,1152,1215,1396,1765,1578,1700,1660,1601,1636,1541,1572,1602,1582,1666,1750,1683,1913,1970,2309,1808
22nd St,Between White Ave and Cumberland Ave,Knox,47000492,TDOT,,93000492,ACTIVE,093C100,-83.93930888,35.95449586,,,,,,,,,,,,8054,8837,8254,8574,8763,8819,8744,8941,9483,9370,8321,8737,8641
Martin Luther King Jr Ave,W of Prosser Rd,Knox,47000493,TDOT,,93000493,ACTIVE,093C303,-83.87686187,35.99814087,,,,,,,,,,,,5327,5205,5363,5007,5052,4594,4827,5426,5201,7021,4425,5066,4930
Bradshaw Rd,N or Ball Camp Pike,Knox,47000494,TDOT,,93000494,ACTIVE,,-83.9919539,35.98047286,,,,,,,,,,,,5208,5318,5184,5302,5863,5379,5068,5386,5312,6130,5716,6010,5446
Rifle Range Dr,E of Dry Gap Pk,Knox,47000495,TDOT,,93000495,ACTIVE,,-83.9644829,36.03617288,,,,,,,,,,,,3542,3498,1398,1538,1217,1256,1364,1422,1537,1635,1528,1491,1243
W Martin Mill Pk,S of Governor John Sevier Hwy,Knox,47000496,TDOT,,93000496,ACTIVE,,-83.91141287,35.88831185,,,,,,,,,,,,4018,3970,4806,4950,3816,3942,4003,4059,4637,3631,4614,3976,4240
W Martin Mill Pk,S of Governor John Sevier Hwy,Knox,47000497,TDOT,,93000497,ACTIVE,,-83.91141787,35.89193485,,,,,,,,,,,,2212,2110,2456,2530,1992,2355,2410,2742,2557,2247,2340,2587,2929
George Williams Rd,E of I-140,Knox,47000498,TDOT,,93000498,ACTIVE,093M005,-84.09797993,35.89311284,,,,,,,,,,,,2690,2610,2891,2848,2857,2917,2981,3035,3649,3447,3498,4040,4005
Fox Rd,S of Kingston Pike,Knox,47000499,TDOT,,93000499,ACTIVE,093M317,-84.11425693,35.89623084,,,,,,,,,,,,4035,4359,4629,4542,4549,4909,4989,5128,5647,5360,5491,5869,5754
Walker Springs Rd,N of Kingston Pk,Knox,47000428,TDOT,,93000428,ACTIVE,,-84.06522792,35.92221985,,6849,9432,18329,11225,11030,10083,11615,10795,10521,10729,10445,10568,10453,10842,11274,11451,11422,11726,12023,9969,10293,10808,10469
S Gallaher View Rd,S of Kingston Pk,Knox,47000429,TDOT,,93000429,ACTIVE,,-84.05903692,35.91993085,,9875,9432,9610,9428,9296,9243,9599,9385,8672,9020,8151,9310,10252,10246,10672,10659,9984,10306,10726,10495,9320,10615,10921
Gleason Dr,E of Gallaher View Rd,Knox,47000430,TDOT,,93000430,ACTIVE,,-84.05400492,35.91755685,,8229,8805,9381,8277,8452,7884,8331,8578,7566,7521,7746,8144,8412,8018,8264,8710,8226,8572,9488,8947,10901,9118,9882
Morell Rd,S of Kingston Pk,Knox,47000431,TDOT,,93000431,ACTIVE,,-84.03421691,35.92534285,,17932,18411,15918,14815,13808,14982,15924,14410,14842,14682,11090,12861,13247,12014,12962,13091,13452,13121,14297,16848,14719,13714,13563
Buckingham Rd,N of Kingston Pk,Knox,47000432,TDOT,,93000432,ACTIVE,,-84.03636191,35.92882685,,13467,15294,13286,11404,11314,11653,11706,11830,12185,11663,10477,12173,11277,11533,11414,11528,12550,12676,13024,12682,13392,11580,12865
Papermill Dr,W of Weisgarber Rd,Knox,47000433,TDOT,,93000433,ACTIVE,,-84.0099189,35.93722785,,14742,15294,14540,14812,14711,15152,15256,12680,13981,13429,14961,14170,14485,14941,14668,14815,14359,16595,16286,16300,15170,17931,15545
Kimberlin Heights Rd,W of Seven Islands Rd,Knox,47000099,TDOT,,93000099,ACTIVE,,-83.71378782,35.94398987,247,353,381,299,282,305,702,772,810,784,808,723,705,796,818,789,682,723,757,784,710,766,683,675
Kodak Rd,S of Thorngrove Pk,Knox,47000100,TDOT,,93000100,ACTIVE,,-83.75949483,35.96223987,545,621,522,547,565,600,649,572,567,510,590,564,584,495,555,457,488,470,542,636,569,675,608,597
Kimberlin Heights Rd,W of Hodges Ferry Rd,Knox,47000103,TDOT,,93000103,ACTIVE,,-83.75328083,35.92982786,3570,3966,3659,3782,4432,3427,4291,3854,4145,4033,3668,3331,3897,4084,3645,3550,3747,4188,4672,4458,3620,4393,4046,4001
Chapman Hwy,N of Simpson Rd,Knox,47000104,TDOT,,93000104,ACTIVE,,-83.81131684,35.89564985,24758,28132,26452,27056,27265,25937,27579,28668,28599,28795,27567,27566,26800,27024,28947,25689,27011,29013,29938,30017,33622,33958,35656,29031
Martin Mill Pk,S of Stock Creek Rd,Knox,47000108,TDOT,,93000108,ACTIVE,,-83.89326287,35.86830084,1240,1292,1179,1244,1156,1230,1243,1243,1174,1201,1188,1175,1222,1310,1184,1054,1042,1017,1027,1213,1145,1373,1138,1125
Chapman Hwy,N of Stone Rd,Knox,47000111,TDOT,,93000111,ACTIVE,,-83.89944287,35.92954586,36610,32734,32816,33145,32083,34551,34338,30895,30946,30672,29714,29966,26620,26764,27768,28414,30379,31449,30935,28908,32213,25281,26198,25910
W Martin Mill Pk,N of Lester Rd,Knox,47000112,TDOT,,93000112,ACTIVE,,-83.91004487,35.92757086,4175,3976,4013,4344,4145,4110,3829,3853,3630,3654,3586,3694,3761,3252,3164,2953,3179,3425,3560,2887,3862,3129,3159,2977
Maryville Pk,N of Joe Lewis Rd,Knox,47000113,TDOT,,93000113,ACTIVE,,-83.92435088,35.92445286,8657,9040,9121,9139,7851,8164,8220,8110,8259,6358,5490,5081,4752,5356,5517,5164,5360,5721,6140,5878,5553,5819,5874,5582
Maryville Pk,Near Blount Co Line,Knox,47000117,TDOT,,93000117,ACTIVE,,-83.94294088,35.87336784,5696,5718,6227,6040,5850,6120,6689,6081,6074,5906,6083,4964,4626,5459,5760,5754,6238,5645,6763,7262,7314,7736,6431,6723
Alcoa Hwy,Near Blount Co Line,Knox,47000119,TDOT,,93000119,ACTIVE,,-83.95942322,35.87464673,49344,48450,52670,51410,52645,53349,52336,53306,49658,47748,46167,46910,47816,49250,47949,45318,49824,50322,50966,49196,51297,45552,47830,47304
S Northshore Dr,N of Lyons Bend Rd,Knox,47000120,TDOT,,93000120,ACTIVE,,-83.9965419,35.91988985,15662,16603,16672,18447,16556,17634,16824,17001,16567,16354,16580,16947,14911,15456,14831,15240,15267,16214,16250,16358,16638,15331,18452,18249
S Northshore Dr,SW of Morrell Rd,Knox,47000121,TDOT,,93000121,ACTIVE,,-84.02293391,35.90182585,13380,14197,15261,17224,15516,17068,16410,16751,16264,14464,13965,14568,13573,13580,15233,14658,12377,13652,14093,16409,14701,14164,17634,13204
Kingston Pk,E of Morrell Rd,Knox,47000123,TDOT,,93000123,ACTIVE,,-84.03068191,35.93030285,31307,34007,35290,34445,35299,35988,37068,35603,36671,37771,30146,26790,26151,26936,28981,26542,30104,31090,25985,23320,27943,28834,30276,26001
I-40,E of Buckingham Dr Overpass,Knox,47000124,TDOT,,93000124,ACTIVE,,-84.0272607,35.93212092,149512,134779,147592,144993,142840,145643,148273,146433,155888,155882,172677,172197,173626,177682,187304,179847,188952,196707,204966,207545,211494,171281,179856,218583
Middlebrook Pk,E of Vanosdale Rd,Knox,47000125,TDOT,,93000125,ACTIVE,,-84.03579069,35.94090695,25894,25826,27058,28854,26575,28023,30061,28273,29121,22155,22824,20884,21927,20550,21118,21598,23777,24014,25344,21228,24049,17396,18355,23588
Mascot Rd,S of Rutledge Pk,Knox,47000035,TDOT,,93000035,ACTIVE,,-83.77077684,36.06319989,1740,1434,1497,1857,1784,1808,1991,2175,2259,1899,1734,1811,1624,1675,1613,1548,1892,1721,1833,1959,2158,1811,2042,2092
Mascot Rd,N of Holston River,Knox,47000037,TDOT,,93000037,ACTIVE,,-83.71002782,36.06407089,7218,6554,7023,7380,7814,7369,7319,6992,7608,7042,6433,6608,6654,6607,6662,6684,7632,7731,7656,7157,8065,8306,8721,8625
Eastend Rd,S of Andrew Johnson Hwy,Knox,47000038,TDOT,,93000038,ACTIVE,,-83.68915681,36.05148189,905,894,923,905,879,917,865,911,878,757,838,829,808,790,798,593,805,857,675,738,744,563,824,690
Ruggles Ferry Pk,W of Andrew Johnson Hwy,Knox,47000039,TDOT,,93000039,ACTIVE,,-83.72706583,36.03766289,312,702,664,628,600,615,654,616,576,559,528,506,496,553,558,575,500,551,626,628,624,643,582,627
I-75 Ramp,,Knox,47000129R,TDOT,,47000129R,ACTIVE,,-83.95718189,36.00174887,,,,,,,,,,,,,,,,,,,,20123,20454,16154,22731,23901
I-75 Ramp,,Knox,47000130R,TDOT,,47000130R,ACTIVE,,-83.95663389,36.00039587,,,,,,,,,,,,,,,,,,,,6051,6646,5457,7806,8033
I-75 Ramp,,Knox,47000182R,TDOT,,47000182R,ACTIVE,,-83.95567089,35.99832087,,,,,,,,,,,,,,,,,,,,6767,7904,7247,9486,9382
I-40 Ramp,,Knox,47000049R,TDOT,,47000049R,ACTIVE,,-83.94350289,35.96238986,,,,,,,,,,,,,,,,,,,,22131,24582,12414,32181,31827
I-40 Ramp,,Knox,47000048R,TDOT,,47000048R,ACTIVE,,-83.94263188,35.96253186,,,,,,,,,,,,,,,,,,,,4901,5031,3797,5486,3061
I-40 Ramp,,Knox,47000045R,TDOT,,47000045R,ACTIVE,,-83.95041288,35.96311886,,,,,,,,,,,,,,,,,,,,2060,2362,1602,1682,2182
I-40 Ramp,,Knox,47000047R,TDOT,,47000047R,ACTIVE,,-83.94754888,35.96295286,,,,,,,,,,,,,,,,,,,,15584,15146,13317,14430,15078
I-40 Ramp,,Knox,47000052R,TDOT,,47000052R,ACTIVE,,-83.94817988,35.96427586,,,,,,,,,,,,,,,,,,,,14688,13939,12131,14937,12580
I-40 Ramp,,Knox,47000046R,TDOT,,47000046R,ACTIVE,,-83.94422888,35.96353486,,,,,,,,,,,,,,,,,,,,6909,6674,5150,6467,7866
I-40 Ramp,,Knox,47000051R,TDOT,,47000051R,ACTIVE,,-83.94242388,35.96324086,,,,,,,,,,,,,,,,,,,,22552,23429,23802,28012,24422
I-40 Ramp,,Knox,47000050R,TDOT,,47000050R,ACTIVE,,-83.93876888,35.96408286,,,,,,,,,,,,,,,,,,,,7854,10015,5036,7185,7120
I-275 Ramp,,Knox,47000155R,TDOT,,47000155R,ACTIVE,,-83.93600388,35.97750687,,,,,,,,,,,,,,,,,,,,2966,2748,2390,2718,2688
I-275 Ramp,,Knox,47000162R,TDOT,,47000162R,ACTIVE,,-83.93526788,35.97779287,,,,,,,,,,,,,,,,,,,,3408,3285,2143,2891,2669
I-40 Ramp,,Knox,47000053R,TDOT,,47000053R,ACTIVE,,-83.93179388,35.96601287,,,,,,,,,,,,,,,,,,,,15346,16939,10741,16739,16555
I-40 Ramp,,Knox,47000058R,TDOT,,47000058R,ACTIVE,,-83.93036388,35.96867887,,,,,,,,,,,,,,,,,,,,25160,18380,23916,30413,26690
I-40 Ramp,,Knox,47000056R,TDOT,,47000056R,ACTIVE,,-83.92964288,35.96746787,,,,,,,,,,,,,,,,,,,,5989,5999,6640,7072,5077
I-40 Ramp,,Knox,47000183R,TDOT,,47000183R,ACTIVE,,-83.93062688,35.97036487,,,,,,,,,,,,,,,,,,,,18365,18797,14840,15582,17959
I-40 Ramp,,Knox,47000057R,TDOT,,47000057R,ACTIVE,,-83.92931188,35.97056687,,,,,,,,,,,,,,,,,,,,10378,10106,9226,11936,10121
I-40 Ramp,,Knox,47000054R,TDOT,,47000054R,ACTIVE,,-83.92880988,35.96782987,,,,,,,,,,,,,,,,,,,,9532,9398,6958,8934,7097
I-40 Ramp,,Knox,47000059R,TDOT,,47000059R,ACTIVE,,-83.92841288,35.96949787,,,,,,,,,,,,,,,,,,,,7883,9850,7305,6769,6855
I-275 Ramp,,Knox,47000158R,TDOT,,47000158R,ACTIVE,,-83.93442088,35.97564887,,,,,,,,,,,,,,,,,,,,2963,2785,2523,2765,2754
I-275 Ramp,,Knox,47000159R,TDOT,,47000159R,ACTIVE,,-83.93404388,35.97649587,,,,,,,,,,,,,,,,,,,,4755,4350,3203,4430,4278
I-40 Ramp,,Knox,47000184R,TDOT,,47000184R,ACTIVE,,-83.93042588,35.97155987,,,,,,,,,,,,,,,,,,,,25856,25146,22485,29916,27051
I-40 Ramp,,Knox,47000055R,TDOT,,47000055R,ACTIVE,,-83.92632288,35.96929487,,,,,,,,,,,,,,,,,,,,10846,11580,10723,12745,10300
I-40 Ramp,,Knox,47000232R,TDOT,,47000232R,ACTIVE,,-83.91915388,35.97535287,,,,,,,,,,,,,,,,,,,,14006,13503,13215,13503,12064
I-40 Ramp,,Knox,47000235R,TDOT,,47000235R,ACTIVE,,-83.91880587,35.97408287,,,,,,,,,,,,,,,,,,,,14933,13384,10968,14125,13006
I-40 Ramp,,Knox,47000233R,TDOT,,47000233R,ACTIVE,,-83.91746488,35.97618587,,,,,,,,,,,,,,,,,,,,5292,5035,4741,4978,4643
I-275 Ramp,,Knox,47000142R,TDOT,,47000142R,ACTIVE,,-83.95136589,35.99014687,,,,,,,,,,,,,,,,,,,,5402,5409,3494,3669,3440
I-275 Ramp,,Knox,47000143R,TDOT,,47000143R,ACTIVE,,-83.95029189,35.99059387,,,,,,,,,,,,,,,,,,,,4956,4811,3389,4682,4630
I-275 Ramp,,Knox,47000146R,TDOT,,47000146R,ACTIVE,,-83.95141489,35.99268187,,,,,,,,,,,,,,,,,,,,4542,4943,3210,4691,4639
I-275 Ramp,,Knox,47000150R,TDOT,,47000150R,ACTIVE,,-83.93779288,35.98036987,,,,,,,,,,,,,,,,,,,,5152,4440,4024,4313,5513
I-275 Ramp,,Knox,47000147R,TDOT,,47000147R,ACTIVE,,-83.93885288,35.98187787,,,,,,,,,,,,,,,,,,,,4186,3206,2256,2360,3437
I-275 Ramp,,Knox,47000154R,TDOT,,47000154R,ACTIVE,,-83.93812388,35.98248187,,,,,,,,,,,,,,,,,,,,3284,2698,2257,2406,3212
Circle Rd,N of Rutledge Pk,Knox,47000342,TDOT,,93000342,ACTIVE,,-83.73276183,36.1256149,1129,877,963,1102,1224,1202,1305,1344,682,702,499,558,598,581,561,506,642,671,665,697,679,621,772,764
Old Rutledge Pk,E of Clear Springs Rd,Knox,47000343,TDOT,,93000343,ACTIVE,,-83.72295883,36.1145039,1817,1729,1795,1505,1698,1809,1634,1810,1736,1596,1634,1627,1676,1664,1681,1328,1590,1540,1742,1673,1594,1415,1802,1558
Midway Rd,S of Smith School Rd,Knox,47000344,TDOT,,93000344,ACTIVE,,-83.68736581,35.96980887,541,674,700,702,453,540,603,518,542,475,530,491,500,502,517,430,528,628,593,711,757,618,738,730
Newman Ln,Near Sevier Co Line,Knox,47000345,TDOT,,93000345,ACTIVE,,-83.68260781,35.96175987,300,375,352,339,376,390,398,339,335,345,360,374,349,365,386,404,318,371,333,336,403,534,488,483
Norris Fy,Near Anderson Co Line,Knox,47000002,TDOT,,93000002,ACTIVE,,-84.00729991,36.1337099,4458,4837,5144,4202,4227,4844,4117,4272,4090,3724,3733,3958,3857,3803,3724,3592,4272,4452,4527,4799,5296,5349,4966,5141
Raccoon Valley Dr,E of Elkins Rd,Knox,47000003,TDOT,,93000003,ACTIVE,,-84.00442391,36.12416689,4828,5221,5202,4551,4598,5156,4760,4431,4649,4360,4376,4874,4596,4142,4653,4108,5167,4782,5309,5432,5761,5240,5502,5398
Pleasant Ridge Rd,N of Murray Dr,Knox,47000075,TDOT,,93000075,ACTIVE,,-84.01875291,35.99877287,9007,9005,8898,9973,9626,10542,10351,10383,10849,11174,11208,8764,9031,9302,10690,11530,11327,11440,12540,10340,11489,11370,12241,11727
Schaad Rd,NE of Hilda Ln,Knox,47000076,TDOT,,93000076,ACTIVE,,-84.03487291,35.99511687,7815,8539,9000,8775,11514,13009,13850,13915,13452,12676,13280,14575,14232,16296,15224,15578,15446,15558,15669,15928,17454,14851,16699,16515
Oak Ridge Hwy,E of Hazelnut Ln,Knox,47000078,TDOT,,93000078,ACTIVE,,-84.05183792,35.98811886,17772,17193,19309,18925,18053,19594,20633,19857,18593,17080,17740,18226,17587,18626,20690,19834,17151,18845,17076,16896,19772,17259,19396,19183
I-75,S of Emory Rd,Knox,47000260,TDOT,,93000260,ACTIVE,,-83.99712232,36.04179497,47887,48627,49521,54201,57340,59469,59533,63420,63333,65793,59309,57898,69208,68694,68308,59246,65301,67914,64357,64999,67600,66028,81818,81497
Millertown Pk,W of Mary Emily Ln,Knox,47000261,TDOT,,93000261,ACTIVE,,-83.85736286,36.03826388,4174,4444,4182,4541,5074,4861,6005,6048,6217,6891,6984,6222,6202,6412,6284,6626,6721,7417,7775,8003,8541,6910,7469,7684
Oak Ridge Hwy,W of Weaver Rd,Knox,47000262,TDOT,,93000262,ACTIVE,,-84.06577392,35.99163286,15486,14734,14864,16762,16593,17414,17506,17831,16032,14611,15324,15208,14876,15509,14490,14729,14118,14647,14793,13847,15374,13594,15134,14837
S Northshore Dr,S of Kingston Pk,Knox,47000263,TDOT,,93000263,ACTIVE,,-84.0020799,35.93175785,20105,18956,20240,19272,18979,19941,19070,17709,18765,17747,16500,17676,18727,17795,18151,16964,17134,17763,19609,21452,19260,18736,21841,15837
N Broadway,S of  Woodrow Dr,Knox,47000264,TDOT,,93000264,ACTIVE,,-83.92788888,36.02743188,41993,40486,41430,38003,42500,42052,43828,40456,42676,40601,42002,39106,41472,44365,42407,41458,45119,48092,49448,41454,45607,33346,35013,33237
Millertown Pk,E of  Spring Hill Rd,Knox,47000265,TDOT,,93000265,ACTIVE,,-83.87550987,36.02631488,5127,6503,6178,5907,6823,6576,7262,7781,7764,7517,7184,7034,6765,7179,6994,6886,7799,7538,7705,7466,7032,6698,7033,7955
Middlebrook Pk,W of Liberty St,Knox,47000266,TDOT,,93000266,ACTIVE,,-83.96987552,35.96242683,15369,15583,17527,17424,18153,18114,21026,20134,18170,17767,18300,16267,15406,15268,15608,14050,16453,17986,18286,14205,16839,15323,13522,14141
Cumberland Av,W of Henley St,Knox,47000420,TDOT,,93000420,ACTIVE,,-83.91839988,35.96200486,8717,6685,7097,7311,5213,5090,5790,5964,6143,6327,2889,2918,3006,2929,3017,2532,3015,3045,1260,1295,2886,2643,1865,1811
Cumberland Av,W of Market St,Knox,47000421,TDOT,,93000421,ACTIVE,,-83.92183288,35.96048886,13698,10844,11169,11504,9393,8937,8487,7970,7887,7112,7475,6734,6538,5967,5797,5709,5924,7940,7377,6617,5972,5211,5293,6620
I-275 Ramp,,Knox,47000151R,TDOT,,47000151R,ACTIVE,,-83.93695888,35.98101687,,,,,,,,,,,,,,,,,,,,4989,4250,2930,4116,5128
I-40 Ramp,,Knox,47000063R,TDOT,,47000063R,ACTIVE,,-83.91793688,35.98158487,,,,,,,,,,,,,,,,,,,,6991,6711,4941,7515,7432
I-40 Ramp,,Knox,47000066R,TDOT,,47000066R,ACTIVE,,-83.91843788,35.98316387,,,,,,,,,,,,,,,,,,,,8917,7032,5720,8028,6868
I-40 Ramp,,Knox,47000234R,TDOT,,47000234R,ACTIVE,,-83.91723088,35.98391687,,,,,,,,,,,,,,,,,,,,5476,5783,5685,5969,5476
I-40 Ramp,,Knox,47000068R,TDOT,,47000068R,ACTIVE,,-83.91639388,35.98457787,,,,,,,,,,,,,,,,,,,,2656,2432,2032,2568,2437
I-40 Ramp,,Knox,47000064R,TDOT,,47000064R,ACTIVE,,-83.91556887,35.98364487,,,,,,,,,,,,,,,,,,,,2685,2204,2074,2374,2348
I-40 Ramp,,Knox,47000072R,TDOT,,47000072R,ACTIVE,,-83.90268987,35.99094087,,,,,,,,,,,,,,,,,,,,6676,6950,5671,5955,7010
I-40 Ramp,,Knox,47000069R,TDOT,,47000069R,ACTIVE,,-83.90147087,35.99076287,,,,,,,,,,,,,,,,,,,,7007,7373,5759,8258,7656
I-40 Ramp,,Knox,47000071R,TDOT,,47000071R,ACTIVE,,-83.89942687,35.99329687,,,,,,,,,,,,,,,,,,,,2642,2367,1962,2680,2297
I-40 Ramp,,Knox,47000070R,TDOT,,47000070R,ACTIVE,,-83.89902987,35.99271087,,,,,,,,,,,,,,,,,,,,2131,2140,1723,2328,2057
I-640 Ramp,,Knox,47000135R,TDOT,,47000135R,ACTIVE,,-83.88946487,36.03197388,,,,,,,,,,,,,,,,,,,,10889,11147,11082,12805,12664
I-640 Ramp,,Knox,47000136R,TDOT,,47000136R,ACTIVE,,-83.88905287,36.03308688,,,,,,,,,,,,,,,,,,,,13060,12678,8130,11790,11138
I-75 Ramp,,Knox,47000173R,TDOT,,47000173R,ACTIVE,,-84.0020209,36.04986488,,,,,,,,,,,,,,,,,,,,2576,2718,2143,3709,3668
I-75 Ramp,,Knox,47000174R,TDOT,,47000174R,ACTIVE,,-84.0014699,36.05096088,,,,,,,,,,,,,,,,,,,,2778,2788,2506,3194,2999
I-75 Ramp,,Knox,47000172R,TDOT,,47000172R,ACTIVE,,-84.0007069,36.04717688,,,,,,,,,,,,,,,,,,,,13336,14228,9789,16557,16375
I-75 Ramp,,Knox,47000171R,TDOT,,47000171R,ACTIVE,,-83.9996239,36.04752188,,,,,,,,,,,,,,,,,,,,14867,13973,10211,15142,13737
Mine Rd,S of Grove Rd,Knox,47000423,TDOT,,93000423,ACTIVE,,-83.74322483,36.07751189,,4088,3387,3505,4000,3708,4305,4361,4170,4063,3683,3739,3986,4031,3896,4117,4648,4250,4541,4709,4776,4039,4749,5056
Corryton-luttrell Rd,at Union Co Line,Knox,47000424,TDOT,,93000424,ACTIVE,,-83.77376685,36.16430791,,608,399,190,604,395,600,582,553,548,571,559,576,523,503,463,582,610,565,573,514,534,499,507
E Magnolia Ave,E of Alice St,Knox,47000149,TDOT,,93000149,ACTIVE,,-83.88116687,35.99739387,17760,19008,17622,17960,16926,16551,17989,16841,17198,16854,15910,14030,12658,12725,13500,11851,13122,12844,11560,12859,11160,9922,11196,11933
Western Av,E of Carrick St,Knox,47000152,TDOT,,93000152,ACTIVE,,-83.93391854,35.96583314,19306,25560,25847,20101,21980,22437,23721,21942,22786,21943,20234,19104,16704,16848,15816,17686,18217,18979,17960,20616,18961,17242,16364,19370
Thorngrove Pk,N of Kodak Rd,Knox,47000098,TDOT,,93000098,ACTIVE,,-83.75684483,35.97022887,877,1036,896,916,915,955,1012,885,873,862,856,822,907,903,858,928,953,943,990,1125,1070,1102,835,909
Kingston Pk,Windsor Square Area,Knox,47000128,TDOT,,93000128,ACTIVE,,-84.09221393,35.91065585,28585,27770,28732,30319,28953,30734,27340,27738,27777,25714,24173,24388,27957,26019,27441,27306,28450,28758,29058,25708,27477,29865,24832,27645
S Northshore Dr,W of I-140,Knox,47000130,TDOT,,93000130,ACTIVE,,-84.07755292,35.85706184,8610,10456,8860,10558,11081,11544,11818,11744,11985,10929,11031,11255,11352,12328,13852,14184,14465,11116,14920,11506,12833,10553,14950,13380
Bluegrass Rd,E of Northshore Dr,Knox,47000131,TDOT,,93000131,ACTIVE,,-84.10882993,35.85838883,1143,1525,1641,1321,1311,1382,1475,1260,1280,1423,1403,1374,1297,1235,1479,1447,1400,1455,1556,1576,1572,1396,1792,1534
Lovell Rd,S of I-40,Knox,47000133,TDOT,,93000133,ACTIVE,,-84.14244094,35.90416684,18215,16617,17252,18907,37494,36176,37261,38969,41958,42932,40519,40200,41024,41077,39537,41449,44860,41820,39259,36407,40805,38322,42280,40838
Yarnell Rd,N of Mercury Dr,Knox,47000134,TDOT,,93000134,ACTIVE,,-84.15252895,35.93211985,1261,1495,1491,1511,1700,1728,2341,2600,2487,2782,2589,2320,2522,2744,3086,3365,3439,3645,3822,3646,4476,3698,4308,4666
Hickory Creek Rd,N of Buttermilk Rd,Knox,47000135,TDOT,,93000135,ACTIVE,,-84.24852097,35.89413284,1223,1826,1515,1461,1024,1477,1521,1632,1742,1669,1387,1403,1564,1778,1454,1787,1773,1817,2182,1717,2220,1833,2428,2422
Everett Rd,S of I-40,Knox,47000136,TDOT,,93000136,ACTIVE,,-84.20654096,35.88167284,565,593,751,757,785,815,766,764,734,802,699,676,718,756,764,878,906,907,927,1284,1239,1289,1114,1757
Kingston Pk,E of Concord Rd,Knox,47000138,TDOT,,93000138,ACTIVE,,-84.14711094,35.89028584,37500,34426,35975,35051,30336,32162,31218,32155,24566,29380,27297,27119,26636,25790,29025,28632,29779,29339,31441,25389,34792,26615,32133,28315
Concord Rd,N of Farragut Hills Blvd,Knox,47000139,TDOT,Moved from erroneous location on S Cmbl Stn Rd. AZ 7/12/2017,93000139,ACTIVE,,-84.14973588,35.8793197,16771,17464,18038,18690,19109,19529,15940,15668,16138,15668,14126,14420,14853,9054,9299,9850,9241,9913,10424,10528,10753,9007,11332,10887
S Northshore Dr,Near Loudon Co Line,Knox,47000141,TDOT,,93000141,ACTIVE,,-84.17614395,35.82226482,1725,2255,1899,2514,2258,2398,2682,2973,2967,2961,2893,3280,3036,3378,4184,4784,4829,5200,5522,5577,4189,3824,5624,4834
Alcoa Hwy,at the Tennessee River,Knox,47000142,TDOT,,93000142,ACTIVE,,-83.94505472,35.9478601,57520,52142,56104,55074,54175,55311,55397,52578,55619,57414,58660,56312,55798,55355,55274,56932,52368,50867,54299,47586,48104,59574,62553,67882
N Broadway,S of Washington Pk,Knox,47000143,TDOT,,93000143,ACTIVE,,-83.92177888,35.99520287,34682,38677,41295,37583,37847,31524,30887,29000,30465,30799,28135,26302,26354,26788,27720,25438,27559,28690,32174,26592,29599,23884,16786,16667
Central Avenue Pk,S of Pruett Pl,Knox,47000145,TDOT,,93000145,ACTIVE,,-83.92454088,35.97689387,10744,9458,9998,9283,9458,10173,10089,9807,9828,9188,8345,7447,7686,8253,8193,7912,7689,8139,7194,7028,6332,5948,5786,7655
N Broadway,N of W Fifth Ave,Knox,47000146,TDOT,,93000146,ACTIVE,,-83.92397788,35.97288087,18713,12245,17707,13689,12444,12840,13637,14533,15051,13570,14915,14043,9216,9492,8233,8790,9604,10311,11048,9250,8704,4831,4227,4674
I-40 Ramp,,Knox,47000077R,TDOT,,47000077R,ACTIVE,,-83.87561886,36.00723288,,,,,,,,,,,,,,,,,,,,9869,8862,7559,11980,10904
I-40 Ramp,,Knox,47000076R,TDOT,,47000076R,ACTIVE,,-83.87503186,36.00740188,,,,,,,,,,,,,,,,,,,,1278,1281,1182,1778,1632
I-40 Ramp,,Knox,47000073R,TDOT,,47000073R,ACTIVE,,-83.87255186,36.00748588,,,,,,,,,,,,,,,,,,,,8386,9678,7029,10718,9678
I-40 Ramp,,Knox,47000074R,TDOT,,47000074R,ACTIVE,,-83.87190886,36.00763188,,,,,,,,,,,,,,,,,,,,3146,3310,2991,3926,3783
I-40 Ramp,,Knox,47000075R,TDOT,,47000075R,ACTIVE,,-83.87054986,36.00925588,,,,,,,,,,,,,,,,,,,,2203,751,2105,3075,2691
I-640 Ramp,,Knox,47000138R,TDOT,,47000138R,ACTIVE,,-83.87064686,36.02933188,,,,,,,,,,,,,,,,,,,,9163,9045,5799,8558,8355
I-40 Ramp,,Knox,47000078R,TDOT,,47000078R,ACTIVE,,-83.86197686,36.01212588,,,,,,,,,,,,,,,,,,,,6136,6392,5226,6213,6814
I-40 Ramp,,Knox,47000081R,TDOT,,47000081R,ACTIVE,,-83.86188486,36.01356388,,,,,,,,,,,,,,,,,,,,5331,5535,4843,6051,6176
I-40 Ramp,,Knox,47000079R,TDOT,,47000079R,ACTIVE,,-83.86094886,36.01475588,,,,,,,,,,,,,,,,,,,,19013,18702,18173,21746,21507
I-40 Ramp,,Knox,47000080R,TDOT,,47000080R,ACTIVE,,-83.85953386,36.01423588,,,,,,,,,,,,,,,,,,,,19698,19707,19503,24570,24983
I-640 Ramp,,Knox,47000137R,TDOT,,47000137R,ACTIVE,,-83.86875486,36.03027788,,,,,,,,,,,,,,,,,,,,9605,9436,6530,9100,9000
I-40 Ramp,,Knox,47000082R,TDOT,,47000082R,ACTIVE,,-83.84376786,36.01115388,,,,,,,,,,,,,,,,,,,,16153,16364,11903,15903,15221
I-40 Ramp,,Knox,47000083R,TDOT,,47000083R,ACTIVE,,-83.84120485,36.00972088,,,,,,,,,,,,,,,,,,,,1391,1388,1307,1474,1321
I-40 Ramp,,Knox,47000085R,TDOT,,47000085R,ACTIVE,,-83.84185585,36.01125288,,,,,,,,,,,,,,,,,,,,16869,17054,12209,16811,15273
I-40 Ramp,,Knox,47000084R,TDOT,,47000084R,ACTIVE,,-83.83994285,36.01012888,,,,,,,,,,,,,,,,,,,,1086,1077,905,950,1028
I-40 Ramp,,Knox,47000086R,TDOT,,47000086R,ACTIVE,,-83.77788484,36.00231188,,,,,,,,,,,,,,,,,,,,7810,7849,5250,7010,7250
I-40 Ramp,,Knox,47000089R,TDOT,,47000089R,ACTIVE,,-83.77674183,36.00377188,,,,,,,,,,,,,,,,,,,,6674,7267,4837,6291,6961
I-40 Ramp,,Knox,47000087R,TDOT,,47000087R,ACTIVE,,-83.77340383,36.00193788,,,,,,,,,,,,,,,,,,,,5614,5375,4513,5522,5721
I-40 Ramp,,Knox,47000088R,TDOT,,47000088R,ACTIVE,,-83.77248283,36.00376288,,,,,,,,,,,,,,,,,,,,4715,4807,3492,3667,4925
Western Av,E of Heins St,Knox,47000153,TDOT,,93000153,ACTIVE,,-83.92970688,35.96437586,18662,23771,21757,18607,19531,20385,17874,20244,20934,20324,20563,18198,19273,19562,12788,14412,15053,15204,15276,16063,15505,13893,11735,15152
Henley St,N of Clinch Ave,Knox,47000154,TDOT,,93000154,ACTIVE,,-83.92203388,35.96270986,62900,41187,48438,47139,49070,51876,46962,44567,48286,45761,43220,38635,47351,42879,19880,29532,26520,26785,30105,36013,37899,32431,28673,28358
Cumberland Av,E of 13th St,Knox,47000155,TDOT,,93000155,ACTIVE,,-83.92596588,35.95881486,24196,27107,24061,23530,20428,20785,22285,19569,18482,17615,18453,16249,16073,13104,13651,13591,13999,14139,11772,13856,13368,10939,10879,8454
Western Av,W of Piedmont St,Knox,47000147,TDOT,,93000147,ACTIVE,,-83.97218289,35.97471286,23447,21042,22972,21938,21838,21825,20572,22971,22736,20554,20414,18817,18478,18420,17344,17694,18225,21810,21974,15968,18371,15638,23239,20448
E Magnolia Ave,NE of Olive St,Knox,47000148,TDOT,,93000148,ACTIVE,,-83.89984187,35.98204287,19233,17547,17903,16012,16574,17150,17840,15748,15576,14800,15336,15796,11278,11626,12072,10631,12008,11087,11198,12287,10935,8437,10860,11626
I-40,Cedar Bluff Rd & Pellissippi Pkwy,Knox,47000164,TDOT,,93000164,ACTIVE,,-84.10446716,35.9151374,129717,127724,139490,133308,134218,137188,141313,143881,142509,144092,157503,155619,157785,160704,166650,161240,172164,179906,181240,182291,195109,143994,154869,196701
I-40,Lovell Rd & Campbell Station Rd,Knox,47000165,TDOT,,93000165,ACTIVE,,-84.16455404,35.90133814,98245,99145,104942,97986,96827,98854,101759,101859,98419,98118,110917,107868,107609,111278,112256,106252,114207,119304,123981,122696,125373,87803,93462,148166
I-275,S of Heiskell Ave,Knox,47000166,TDOT,,93000166,ACTIVE,,-83.94995591,35.98791464,55820,54126,59446,60967,56674,59658,59574,55449,60470,57396,57605,58139,56864,57317,58571,57019,59148,59118,71227,74684,68660,60735,60703,55417
Oak St,S of I-40/I-75 Interchange,Knox,47000167,TDOT,,93000167,ACTIVE,,-83.92659888,35.96763286,558,801,796,529,461,489,495,415,549,565,652,504,377,420,425,429,442,573,582,605,856,1662,1548,1531
E Gov John Sevier Hwy,French Broad River Bridge,Knox,47000168,TDOT,,93000168,ACTIVE,,-83.80768284,35.95174787,11016,12412,12393,11478,11854,11379,12362,11356,10971,10544,11081,11887,11249,10429,10031,9975,10113,10934,10975,11736,12200,11549,12216,13411
I-40,E of Liberty St,Knox,47000169,TDOT,,93000169,ACTIVE,,-83.95863714,35.95970009,118229,94341,107413,107526,105247,107903,109453,112033,122592,122092,127582,129746,131600,128812,135382,130528,139843,135281,150957,149092,147418,121876,122506,133657
I-40,W of Hollywood Rd,Knox,47000170,TDOT,,93000170,ACTIVE,,-83.98415335,35.95046149,163223,140167,154162,150024,152129,154893,154662,155786,166206,168165,173581,178802,180435,178238,191467,182564,193911,196409,210406,212693,215216,170026,182502,211587
Alcoa Hwy,N of Kingston Pk Interchange,Knox,47000171,TDOT,,93000171,ACTIVE,,-83.94671559,35.9594782,53819,52979,52315,57288,50189,55509,60256,53899,55516,59692,51231,57914,62133,64035,66079,67442,77475,77420,83118,76644,73526,65291,68556,67802
I-40,W of Prosser Rd Overpass,Knox,47000173,TDOT,,93000173,ACTIVE,,-83.88611518,36.00187143,83654,80769,84995,84641,82688,76897,82901,75998,73863,67998,96312,89308,82176,84677,99957,77378,87151,78723,85343,89049,91541,76743,82386,95656
I-40,W of Boruff St Overpass,Knox,47000174,TDOT,,93000174,ACTIVE,,-83.90865679,35.9864623,90785,87236,91830,93172,92209,84823,91471,84160,80507,72665,101290,95510,89993,92455,108331,85423,95719,86719,94012,98207,101357,84488,91591,96909
I-40,E of Spring Hill Rd Underpass,Knox,47000175,TDOT,,93000175,ACTIVE,,-83.86604726,36.01081699,74785,73476,74694,76889,75366,69814,75582,69170,69194,62161,87904,80679,72182,75176,90024,69289,76848,68874,74666,77421,79884,68433,68467,77407
I-640,E of Broadway,Knox,47000331,TDOT,,93000331,ACTIVE,,-83.90389267,36.02628224,54877,44349,47910,52104,56550,56851,56823,58977,62588,69273,52875,50802,52215,56859,54036,57050,55910,61247,60071,63776,79741,72948,71684,76691
I-640,S of Buffat Mill Rd Underpass,Knox,47000332,TDOT,,93000332,ACTIVE,,-83.86290492,36.02595382,48676,46249,52204,47824,53483,52788,53380,53985,56602,63332,47228,45279,47215,52337,48400,51906,52516,54790,54925,58495,74397,66065,69368,70244
W Brushy Valley Dr,W of Heiskell Rd,Knox,47000335,TDOT,,93000335,ACTIVE,,-84.05346792,36.05840988,474,904,613,673,615,667,658,622,563,584,589,627,571,588,580,616,651,589,682,702,807,818,845,831
Amherst Rd,W of Jackson Rd,Knox,47000434,TDOT,,93000434,ACTIVE,,-84.02333491,35.95797586,,3207,5054,3727,3250,3510,3450,3383,3296,3047,2975,2969,2825,3350,3194,3275,3303,3817,3700,3362,3555,3460,3316,3280
I-40 Ramp,,Knox,47000093R,TDOT,,47000093R,ACTIVE,,-83.70196581,35.99747688,,,,,,,,,,,,,,,,,,,,1628,1788,1218,1649,1589
I-40 Ramp,,Knox,47000090R,TDOT,,47000090R,ACTIVE,,-83.70163881,35.99576588,,,,,,,,,,,,,,,,,,,,1549,2531,1280,1565,1454
I-40 Ramp,,Knox,47000091R,TDOT,,47000091R,ACTIVE,,-83.69694381,35.99599188,,,,,,,,,,,,,,,,,,,,540,597,494,607,577
I-40 Ramp,,Knox,47000092R,TDOT,,47000092R,ACTIVE,,-83.69760981,35.99766288,,,,,,,,,,,,,,,,,,,,583,574,424,587,836
E Emory Rd,W of Pedigo Rd,Knox,47000323,TDOT,,93000323,ACTIVE,,-83.9854279,36.05693088,16145,16893,17894,18203,18316,19599,20206,20119,20723,19820,20415,23558,23335,23708,24277,22555,23274,23507,27383,29331,29053,27153,28511,28197
Weisgarber Rd,S of Casey Dr,Knox,47000325,TDOT,,93000325,ACTIVE,,-84.0132079,35.94729186,18777,17261,18109,20879,20631,16121,16113,16485,16672,17709,18660,17723,19004,19093,20541,21387,18555,22543,23803,21049,20570,20256,20408,20184
Middlebrook Pk,W of Knott Rd,Knox,47000326,TDOT,,93000326,ACTIVE,,-84.0011329,35.95677086,33252,32960,34463,35963,31283,34415,36221,33812,29965,27985,28738,25067,23425,22059,23615,25322,25168,26021,26798,27906,22858,24466,22792,23241
I-275,N of Elm St Overpass,Knox,47000256,TDOT,,93000256,ACTIVE,,-83.93278194,35.97425611,63780,57143,61278,62794,56341,60124,61199,55648,60722,57530,59787,60612,59818,59609,61282,59918,62570,61809,75829,79736,72488,64369,67587,61084
I-75,N of Inskip Dr Overpass,Knox,47000257,TDOT,,93000257,ACTIVE,,-83.96909754,36.00825816,62350,65800,67485,77223,82575,83194,81300,85368,86826,88950,82321,80497,89058,80807,80973,80106,88832,89720,86230,87092,92361,79723,101296,89876
I-75,N of Murray Dr Overpass,Knox,47000258,TDOT,,93000258,ACTIVE,,-83.9883063,36.01826794,56780,57678,59227,64096,66337,69135,68872,72506,73026,76998,69759,68605,78272,80183,78864,70050,78262,79317,75997,76799,80144,73320,93929,93298
Grand Av,E of 19th St,Knox,47000259,TDOT,,93000259,ACTIVE,,-83.93735388,35.96061086,1924,2146,2146,1565,1518,1564,831,1167,1901,2179,2718,2684,2718,2963,3020,3002,3065,5494,5066,4931,4445,4155,4500,4757
E Emory Rd,E of Willow Fork Ln,Knox,47000019,TDOT,,93000019,ACTIVE,,-83.91890088,36.08564989,9476,11430,12829,11236,12105,12600,12267,11770,10909,11236,11112,10728,11406,10403,10806,10363,12727,12299,12222,11976,12604,11106,12226,12625
Howard Baker Jr Ave,W of Salvus St,Knox,47000269,TDOT,,93000269,ACTIVE,,-83.91095888,35.96642786,5415,3827,3652,3154,3380,2979,2839,2904,2820,2631,3132,2980,3219,2835,3318,3439,3169,2978,2730,2809,2733,2778,2661,1817
James White Pkwy,At Jackson Ave Overpass,Knox,47000270,TDOT,,93000270,ACTIVE,,-83.91612379,35.97138338,48330,40435,44244,44490,44959,41055,42273,42919,42384,44206,44869,45274,46089,47108,44777,45953,31575,35537,38732,38404,41512,33144,26782,26487
E Gov John Sevier Hwy,S of Arnstrong Rd,Knox,47000271,TDOT,,93000271,ACTIVE,,-83.82674785,35.98582487,12795,13772,12781,11959,11815,13560,13833,12091,12481,11836,10806,10562,11420,12174,12037,11472,13127,12947,13117,12800,14375,12859,15408,15547
Spence Pl,Island Home Airport,Knox,47000327,TDOT,,93000327,ACTIVE,,-83.87628487,35.96101886,417,224,289,258,252,248,303,232,264,236,242,183,150,272,280,211,326,251,321,297,232,262,319,248
I-75/640,SW of Gap Rd Underpass,Knox,47000330,TDOT,,93000330,ACTIVE,,-83.97015263,35.99007478,67984,66154,75133,74852,75954,80047,81409,78868,75286,71064,66548,72909,70349,74177,75506,78266,77360,77375,78132,81897,96724,92735,94386,104064
Whittle Springs Rd,N of Fairmont Blvd,Knox,47000346,TDOT,,93000346,ACTIVE,,-83.91503288,36.01032787,8724,8084,8523,9200,8514,8800,8172,8319,8100,6826,7582,6399,6444,6434,6498,6948,7024,6948,7211,6273,7060,5615,5275,5554
N Cherry St,S of Washington Ave,Knox,47000347,TDOT,,93000347,ACTIVE,,-83.89611071,35.98881597,19859,18661,13716,17692,14082,14504,14600,13420,13777,12775,12679,11662,11858,13280,14265,14408,13556,13756,14273,15618,13272,15047,16620,17423
Ed Shouse Dr,N of Middlebrook Pk,Knox,47000349,TDOT,,93000349,ACTIVE,,-83.98247258,35.96627878,26873,30140,29918,27701,25448,29572,27857,26175,24624,23280,22568,20439,19855,22160,22725,23977,22920,23646,22028,22301,20190,17929,22146,21675
N Cedar Bluff Rd,S of I-40/75,Knox,47000350,TDOT,,93000350,ACTIVE,,-84.08739193,35.91341085,16155,17066,16697,16559,16187,17321,15655,16443,17328,16092,15451,15360,16169,17047,19243,18508,19139,19501,19696,21059,22256,19763,28137,28343
Brickyard Rd,N of Levy Dr,Knox,47000351,TDOT,,93000351,ACTIVE,,-84.03416592,36.03422187,1475,1319,1500,1530,1530,1567,1598,1646,1656,1662,1626,1708,1750,1949,1996,2002,646,705,705,712,672,692,740,582
Fort Sumpter Rd,W of Foust Hollow Rd,Knox,47000386,TDOT,,93000386,ACTIVE,,-83.92849889,36.1225669,307,374,380,291,280,353,374,313,322,293,308,301,295,325,282,298,360,335,350,322,362,308,384,403
Old Broadway,N of N Broadway,Knox,47000501,TDOT,,93000501,ACTIVE,,-83.92377388,36.01606387,,,,,,,,,,,,8666,8292,8524,9066,8032,9514,9385,9362,9513,9755,8575,8036,7917
Libery St,N of Division St,Knox,47000502,TDOT,,93000502,ACTIVE,093C085,-83.96555289,35.95704086,,,,,,,,,,,,9216,8969,9311,8284,9087,9178,9648,10095,8183,9768,12576,8182,8725
N Central St,S of E Jackson Ave,Knox,47000503,TDOT,,93000503,ACTIVE,,-83.91828188,35.96998786,,,,,,,,,,,,3432,3471,3669,3327,3457,4058,3700,3840,3903,3086,2740,3715,3674
Sevierville Pk,E of E Red Bud Rd,Knox,47000504,TDOT,,93000504,ACTIVE,,-83.88348587,35.94364586,,,,,,,,,,,,2446,1988,2408,2504,2381,2546,2541,2598,2683,3144,2861,2093,2715
W 5th Ave,W of N Broadway,Knox,47000505,TDOT,,93000505,ACTIVE,093C218,-83.92505088,35.97252786,,,,,,,,,,,,5422,5742,5558,5364,5101,5369,6251,5550,5872,5380,4777,6912,7664
Parkside Dr,E of N Campbell Station Rd,Knox,47000506,TDOT,,93000506,ACTIVE,093M096,-84.16710523,35.89852097,,,,,,,,,,,,21898,19172,17536,19809,19846,20907,20163,19987,22777,20232,17264,24705,20233
Pellissippi Py,N of Bluegrass Rd,Knox,47000414,TDOT,,93000414,ACTIVE,,-84.08376769,35.86764195,29779,34183,34772,38942,41825,46047,45318,43902,41000,39933,42709,43696,44157,49088,49059,46394,49829,48322,48071,48708,48609,43432,47990,47462
Pellissippi Py,N of George Williams rd,Knox,47000415,TDOT,,93000415,ACTIVE,,-84.10913791,35.88927179,35275,38918,42345,44603,40867,47502,47068,48133,46811,45924,49403,50663,50910,56306,55968,53539,56691,55092,54883,55497,55861,48625,54523,55194
I-40/75,Weigh Station,Knox,37,TDOT,This counter was given a local ID of 37 in 2020. Conger said not to move to location in 2021 TDOT data,93000990,ACTIVE,,-84.19431596,35.89382384,84065,85813,91163,87681,86864,89062,92003,93088,88548,85298,96738,92881,95044,95501,96958,90550,98417,105973,108763,,,75795,79585,112208
Tazewell Pk,At Union Co Line,Knox,47000205,TDOT,,93000205,ACTIVE,,-83.81527786,36.16564691,5511,5381,5071,5267,5590,5999,5941,5283,5183,4884,4821,4717,4484,4868,4759,4902,4170,4742,4911,5141,5426,4512,4665,4614
Old Stage Rd,E of McFee Rd,Knox,47000425,TDOT,,93000425,ACTIVE,093M079,-84.20090696,35.86393383,,4645,4654,4402,4509,5022,5275,5445,4496,5003,4884,5308,5334,5322,5771,5944,6102,6152,6533,7689,9048,7149,12138,10749
Sevier Ave,E of Gay St,Knox,47000426,TDOT,,93000426,ACTIVE,,-83.91201188,35.95640286,,4527,4121,2847,3218,3315,3606,3394,3824,3356,3457,2416,2479,2119,2272,1933,2423,2125,2200,2286,2319,2516,,3036
Dutchtown Rd,W of Floyd Ln,Knox,47000427,TDOT,,93000427,ACTIVE,,-84.10408093,35.92728985,,6944,7253,6939,6886,6884,7091,6957,5282,5049,5606,5311,6268,6007,6403,7469,8055,8285,9058,9938,9368,8530,8300,9155
University Av,W of Clyde St,Knox,47000352,TDOT,,93000352,ACTIVE,,-83.94189289,35.96540686,16718,18181,18563,16838,15699,16116,16821,18408,16724,16213,14341,14340,13557,13894,12832,13840,13974,15537,16108,15689,15601,15414,14726,15902
Cooper St,W of King St,Knox,47000353,TDOT,,93000353,ACTIVE,,-83.92037588,35.97102086,1664,1725,1538,1339,1215,1251,1174,1007,2030,2091,1499,1543,828,840,912,921,930,1400,1098,1109,1260,941,983,920
Woodbine Av,Between Olive St & Spruce St,Knox,47000354,TDOT,,93000354,ACTIVE,,-83.90052087,35.98449087,832,1337,784,714,855,715,743,720,768,791,758,497,454,458,495,500,459,446,465,474,501,425,373,342
Vanosdale Rd,N of Bennington Dr,Knox,47000355,TDOT,,93000355,ACTIVE,,-84.03751491,35.93711785,13599,12808,13469,14000,12265,14281,14407,12225,11950,10951,9849,10605,12211,11060,11597,12634,12760,12266,11720,12196,11218,11330,11896,12329
Cedar Ln,W of Montrose Rd,Knox,47000357,TDOT,,93000357,ACTIVE,,-83.94873089,36.02830688,12798,13849,15923,11392,12395,12571,11743,11337,11396,10485,10767,10288,10393,11125,11062,11237,10814,11554,10855,11265,11059,9351,9819,10064
Rutledge Pk,S of I-40,Knox,47000358,TDOT,,93000358,ACTIVE,,-83.87462687,36.00419887,10667,9710,9693,9521,9512,10418,9544,9347,9666,9776,9681,8359,8250,8749,8838,8840,8928,9978,10023,10214,11583,9122,10814,7875
Carter School Rd,N of Thorngrove Pk,Knox,47000063,TDOT,,93000063,ACTIVE,,-83.69715481,36.00732288,1598,1724,1707,1524,1525,1598,1449,1343,1177,1212,1291,1402,1238,1244,1156,1325,1250,1258,1180,1121,1155,1040,1237,1155
Midway Rd,S of I-40,Knox,47000064,TDOT,,93000064,ACTIVE,,-83.69740981,35.99122988,2097,2235,2333,2113,2150,2117,2137,2031,1993,1873,2082,2045,1984,2042,1839,1831,1826,2227,2000,2067,2362,2184,2136,2106
Huckleberry Springs Rd,S of I-40,Knox,47000066,TDOT,,93000066,ACTIVE,,-83.76573884,36.00000188,2094,2246,2288,2332,2531,2515,2711,2434,2300,2231,2404,2284,2210,2349,2507,2260,2375,2240,2468,2568,2856,2251,2124,2134
Strawberry Plains Pk,E of Moshina Rd,Knox,47000067,TDOT,,93000067,ACTIVE,,-83.79597684,35.98760987,7916,10054,9916,9256,10159,9783,10429,10374,9366,8328,8809,7776,8422,7515,7084,7459,8252,8019,8069,7973,9073,8137,9000,9628
Boyds Bridge Pk,Bridge at Holston River,Knox,47000069,TDOT,,93000069,ACTIVE,,-83.85786586,35.98466687,3496,4497,3976,3831,4427,4508,4175,4128,3960,3503,4097,3933,2796,3223,3099,3270,3519,3660,3619,4243,4139,4491,4259,4559
E Magnolia Ave,W of Morgan St,Knox,47000070,TDOT,,93000070,ACTIVE,,-83.91905588,35.97322687,10128,10260,11116,9279,8934,9682,10054,10256,10356,10667,7583,8424,9382,1746,1732,1749,1851,1851,1910,2446,1842,1529,1373,1817
Bruhin Rd,N of Heiskell Ave,Knox,47000071,TDOT,,93000071,ACTIVE,,-83.94971489,35.99584087,10871,11381,11515,10360,11247,12089,10901,10657,10546,10834,10436,10011,9520,10248,10307,10320,11424,11753,11558,10867,12025,10532,11280,10748
Central Avenue Pk,S of Inskip Dr,Knox,47000072,TDOT,,93000072,ACTIVE,,-83.96505289,36.00686487,7839,9718,8907,7849,8212,8635,8080,8081,8131,8375,8318,8428,7532,7708,7939,7828,7483,7840,7612,7623,8144,7713,8099,7924
Clinton Hwy,S of Tillery Rd,Knox,47000073,TDOT,,93000073,ACTIVE,,-83.96546532,35.99968154,30533,28434,29146,29720,27798,29432,31602,27132,26293,25169,24210,24677,24199,26320,25526,25841,26845,27681,27556,27993,26885,21926,21084,21532
Pleasant Ridge Rd,S of I-640,Knox,47000074,TDOT,,93000074,ACTIVE,,-83.9758399,35.98220887,10575,10575,11270,10331,10096,10856,10646,10993,10371,10140,10373,10684,10645,8181,9417,9171,9376,8765,8853,7613,9764,8886,10237,9885
Byington Solway Rd,E of Crosslane Rd,Knox,47000560,TDOT,,93000560,ACTIVE,,-84.13009882,35.96634189,,,,,,,,,,,,,,,,,,4450,4495,4235,3864,3999,3455,3202
Walnut St,N of Neyland Dr,Knox,47000561,TDOT,,93000561,ACTIVE,,-83.91744033,35.95940585,,,,,,,,,,,,,,,,,,,3528,3294,3557,3644,2174,3201
E Young High Pk,E of Chapman Hwy,Knox,47000562,TDOT,,93000562,ACTIVE,,-83.9024413,35.9364478,,,,,,,,,,,,,,,,,,3418,3452,3246,4548,3237,3399,3601
Sevierville Pk,S of Bays Mountain Rd,Knox,47000563,TDOT,,93000563,ACTIVE,093M252,-83.79663706,35.89489569,,,,,,,,,,,,,,,,,,1103,1271,1044,1084,963,1139,1126
Brown Gap Rd,S of Bell Rd,Knox,47000564,TDOT,,93000564,ACTIVE,,-83.90056427,36.08965413,,,,,,,,,,,,,,,,,,1467,1482,1735,1659,1599,1823,1733
Crippen Rd,E of Maynardville Pk,Knox,47000565,TDOT,,93000565,ACTIVE,093M222,-83.92723833,36.0724441,,,,,,,,,,,,,,,,,,4274,4445,4326,4213,4339,4513,4499
Roberts Rd,S of E Emory Rd,Knox,47000566,TDOT,,93000566,ACTIVE,093M036,-83.80406903,36.13615223,,,,,,,,,,,,,,,,,,2610,2477,2575,2397,2129,2391,2573
Jenkins Rd,W of Joe Hinton Rd,Knox,47000567,TDOT,,93000567,ACTIVE,093M364,-84.07329319,35.95277535,,,,,,,,,,,,,,,,,,1163,1115,1058,1316,1056,1072,982
Bakertown Rd,S of Ball Rd,Knox,47000568,TDOT,,93000568,ACTIVE,093M300,-84.08509422,35.97133389,,,,,,,,,,,,,,,,,,1188,1200,1061,1366,1349,1416,1400
Bakertown Rd,S of Ball Camp Pk,Knox,47000569,TDOT,,93000569,ACTIVE,,-84.0783877,35.96513188,,,,,,,,,,,,,,,,,,3162,2685,2805,3547,3513,3485,2730
Beaver Cr Dr,W of Old Clinton Pk,Knox,47000570,TDOT,,93000570,ACTIVE,093M054,-84.05053463,36.01501199,,,,,,,,,,,,,,,,,,5292,5345,5012,5805,5235,5803,5739
W Beaver Creek Dr,W of Brickyard Rd,Knox,47000571,TDOT,,93000571,ACTIVE,093M090,-84.02758857,36.021841,,,,,,,,,,,,,,,,,,5276,5953,5803,5841,5187,5446,5699
Parkside Dr,E of Lovell Rd,Knox,47000507,TDOT,,93000507,ACTIVE,,-84.13440767,35.90617272,,,,,,,,,,,,14388,12809,13254,13538,13079,14369,14162,13917,14756,14983,14068,15111,14945
Greenway Dr,E of Beverly Rd,Knox,47000508,TDOT,,93000508,ACTIVE,,-83.89618287,36.03204288,,,,,,,,,,,,6275,5233,5833,5770,5502,5762,6408,5987,6220,6492,6071,6191,5780
Sanderson Rd,S of Western Ave,Knox,47000509,TDOT,,93000509,ACTIVE,,-83.97460089,35.97009286,,,,,,,,,,,,4376,4458,4659,4815,4487,5073,5133,4626,5027,5014,4452,6050,5860
Sherrill Blvd,E of Christian Academy Blvd,Knox,47000510,TDOT,,93000510,ACTIVE,093M083,-84.09966593,35.92125585,,,,,,,,,,,,4815,4884,4538,4326,4494,5080,5087,4913,4954,8563,6327,5531,8911
N Hall of Fame Dr,N of E Fifth Ave,Knox,47000511,TDOT,,93000511,ACTIVE,093C273,-83.91664588,35.97785087,,,,,,,,,,,,12291,12353,14819,13487,14146,13730,14274,14393,13915,14267,12546,12198,13870
W Blount Ave,W of Chapman Hwy,Knox,47000512,TDOT,,93000512,ACTIVE,,-83.91927288,35.95217386,,,,,,,,,,,,2972,2176,2669,3105,3196,3370,3836,3968,3086,3508,3574,3753,3652
Hillwood Dr,W of South Haven Rd,Knox,47000513,TDOT,,93000513,ACTIVE,,-83.89144587,35.95829586,,,,,,,,,,,,446,498,2327,2563,2574,2776,3108,3496,3520,3995,3548,2940,2741
E 5th Ave,E of North Central St,Knox,47000461,TDOT,,93000461,ACTIVE,,-83.92012288,35.97454187,,,,,,,,,,,,23690,6154,5844,5876,7073,7360,6379,7121,6463,5834,4955,5208,6086
Hill Ave,E of Hall of Fame Dr,Knox,47000095,TDOT,,93000095,ACTIVE,,-83.91093188,35.96254286,,,5741,5224,6303,6383,6048,6316,6252,6440,6252,5407,4663,5042,5325,5213,5731,6433,6430,7041,7588,7475,8075,7377
Volunteer Bv,S of Cumberland Ave,Knox,47000401,TDOT,,93000401,ACTIVE,,-83.92981288,35.95647386,12051,15193,12199,12643,11152,11032,11963,10266,10574,11410,10462,9119,9820,7683,7913,8150,8979,8841,9374,9697,10071,8943,9390,9287
Melrose Pl,S of Cumberland Ave,Knox,47000402,TDOT,,93000402,ACTIVE,,-83.93205888,35.95607786,8329,9597,10167,8583,9326,8758,9141,7949,7524,7515,6771,7365,6939,6868,6321,6384,6934,6847,7154,2423,8145,6914,4522,5339
Cumberland Av,Between 17th St & 16th St,Knox,47000403,TDOT,,93000403,ACTIVE,,-83.93158888,35.95683786,25929,24189,25033,25215,23288,23111,23869,22667,21016,20579,20790,20915,18693,17267,15864,17104,18594,17457,18822,8070,8151,14511,12377,12241
Cumberland Av,Between 17th St & 18th St,Knox,47000404,TDOT,,93000404,ACTIVE,,-83.93329288,35.95620686,26232,26404,28458,25511,23500,22025,24250,22370,20732,22670,21815,20800,19828,20066,18825,19185,18253,18425,18609,16020,15494,17937,14546,14904
Clinch Ave,Between 17th St & 18th St,Knox,47000406,TDOT,,93000406,ACTIVE,,-83.93424688,35.95792586,5889,6473,6550,5464,5266,4660,5168,4972,5138,5513,5521,5281,5067,5130,5049,5181,5336,5270,5414,5454,5518,8113,8519,5977
Clinch Ave,Between 17th St & 16th St,Knox,47000407,TDOT,,93000407,ACTIVE,,-83.93252588,35.95856386,4632,4373,4637,4120,4236,4543,4539,4350,4282,4774,4698,4077,4002,3950,4558,4134,4549,4014,4401,4974,4157,5124,3063,4045
Campbell Station Rd,S of Kingston Pk,Knox,47000454,TDOT,,93000454,ACTIVE,093M383,-84.15661694,35.87829084,,,,,,,,6801,7005,8085,7610,8112,8533,9221,9734,10124,10608,11313,11474,11705,11349,10142,13387,11928
I-40,E of Midway Rd,Knox,47000450,TDOT,,93000450,ACTIVE,,-83.65441796,35.98762238,,,,,,,,65990,67654,65874,86384,70418,63349,66839,65161,63896,77155,70550,75790,76810,67331,70478,84952,76891
Maloneyville Rd,N of Washington Pk,Knox,47000338,TDOT,,93000338,ACTIVE,,-83.84189386,36.07823989,1694,1337,1615,1304,1134,1494,1423,1618,1379,1420,1473,1646,1589,1439,1576,1669,1757,1727,1818,1630,1746,1449,1264,1297
Millertown Pk,E of Roberts Rd,Knox,47000339,TDOT,,93000339,ACTIVE,,-83.77594584,36.08255289,1073,884,1109,1051,1147,1100,1245,1277,1294,1378,1289,1283,1321,1071,1045,1105,1113,1298,1308,1401,1593,1330,1295,1301
SR 61,W of Grainger County line,Knox,47000453,TDOT,,93000453,ACTIVE,,-83.73314683,36.16084891,,,,,,,1489,1537,1682,1934,1948,2141,1894,2150,1906,2004,2190,2429,2791,2849,2688,3000,3160,3230
I-40,E of I-275,Knox,47000456,TDOT,,93000456,ACTIVE,,-83.92421192,35.97034871,,,,,,,,,100942,100611,114840,110566,119005,119584,137337,107546,136067,137591,145208,126779,135469,104800,115780,124560
Pellissippi Pkwy,S of Hardin Valley Rd,Knox,47000458,TDOT,,93000458,ACTIVE,,-84.15233713,35.9417119,,,,,,,,,,48546,50002,,57326,57611,56484,59114,57143,59264,59594,67112,70346,56264,59077,58427
Pellissippi Pkwy,S of Lovell Rd,Knox,47000459,TDOT,,93000459,ACTIVE,,-84.14113373,35.931791,,,,,,,,,,49850,51346,,54422,59776,59528,62946,62724,67001,71701,70753,74442,75930,79727,62700
Strawberry Plains Pk,E of Molly Bright Rd,Knox,47000059,TDOT,,93000059,ACTIVE,,-83.74763483,36.01914088,6204,6560,6842,6792,7292,7326,7041,6308,5561,6415,6444,6238,5934,6399,6094,6114,5986,6776,7185,7010,6786,6889,6249,5493
Andrew Johnson Hwy,N of Asheville Hwy,Knox,47000060,TDOT,,93000060,ACTIVE,,-83.73014507,36.03037395,21396,19743,19940,22225,19235,21419,19642,18551,18063,19610,18121,18210,17934,18506,18587,18016,18271,19644,18622,19099,19327,17162,17282,18196
Asheville Hwy,W of Stingtown Rd,Knox,47000062,TDOT,,93000062,ACTIVE,,-83.71313482,36.02369688,5451,5956,5801,5733,5708,5481,5916,5541,5243,4806,4974,4837,4865,4863,4477,4610,5018,4893,5279,4810,5203,4811,4971,4599
Phillip Fulmer Way,S of Cumberland Ave,Knox,47000400,TDOT,,93000400,ACTIVE,,-83.92803088,35.95700586,6564,5464,5980,6199,5407,5782,5313,4517,4835,5101,4862,3498,4006,3852,3405,3413,3481,3754,3792,3830,3998,5718,6004,5938
13th St,N of Highland Ave,Knox,47000397,TDOT,,93000397,ACTIVE,,-83.92852388,35.96219586,981,1082,1049,971,895,827,915,883,929,957,894,925,908,838,743,735,706,964,947,831,852,781,928,1020
11th St,Between Cumberland Ave and White Ave,Knox,47000398,TDOT,,93000398,ACTIVE,,-83.92494788,35.96001386,5983,6664,7779,6598,6696,6795,7528,6944,7152,7740,7063,7248,7385,7423,5750,5863,5537,5460,5515,5473,5743,4102,4307,5775
15th St,N of Laurel Ave,Knox,47000399,TDOT,,93000399,ACTIVE,,-83.92991788,35.96092586,2474,1084,2964,1690,1611,1532,1308,594,1083,1613,1106,1000,1002,1024,1034,914,1017,1069,1001,1019,1033,903,815,806
Raccoon Valley Dr,W of Twinville Rd,Knox,47000004,TDOT,,93000004,ACTIVE,,-83.99448691,36.1336059,1486,1417,1515,1510,1424,1481,1510,1583,1545,1374,1476,1631,1538,1610,1384,1334,1666,1545,1669,1509,1683,1439,1330,1519
Tazewell Pk,S of Twin Oak Ln,Knox,47000006,TDOT,,93000006,ACTIVE,,-83.85467387,36.1311559,7759,7738,7353,7781,8169,8373,8129,8129,8169,8477,8417,7117,7527,7802,7215,8271,7103,7258,7202,8153,7958,7390,7660,8384
E Emory Rd,E of Tazewell Pk,Knox,47000009,TDOT,,93000009,ACTIVE,,-83.84711987,36.1230599,5738,5778,5250,5122,5276,5429,5761,5222,4998,5104,4729,5249,5430,5208,5156,4749,5072,5480,5180,5905,6312,5526,5702,5639
Boruff Rd,S of Emory Rd,Knox,47000010,TDOT,,93000010,ACTIVE,,-83.82423586,36.1300229,623,698,725,636,726,740,707,726,649,720,685,665,667,672,745,728,857,931,987,993,870,775,687,816
E Emory Rd,E of Jim Wolfe Rd,Knox,47000011,TDOT,,93000011,ACTIVE,,-83.78519785,36.14628291,2340,2392,2613,2380,2732,2825,2858,2441,2621,2545,2444,2500,2371,2333,2236,2587,2488,2630,2795,2773,2520,2724,1972,2239
Washington Pk,N of Emory Rd,Knox,47000012,TDOT,,93000012,ACTIVE,,-83.73758684,36.15684491,1420,1584,1375,1308,1278,1313,1489,1492,2132,2196,1536,606,624,526,490,565,571,580,621,645,674,599,716,769
E Emory Rd,E of Dyer Rd,Knox,47000013,TDOT,,93000013,ACTIVE,,-83.74374784,36.15314091,1278,1281,1297,1323,1434,1452,1394,1286,1250,1084,1146,1199,1014,1093,991,1140,1140,1253,1359,1333,1305,1330,1368,1502
Washington Pk,N of Zacharytown Rd,Knox,47000014,TDOT,,93000014,ACTIVE,,-83.74205084,36.14660591,907,1048,1100,1089,1123,1311,1259,1370,1307,569,506,537,553,454,439,416,428,472,469,459,477,491,508,543
N Cedar Bluff Rd,N of Sherrill Blvd,Knox,47000127,TDOT,,93000127,ACTIVE,,-84.09367293,35.92382185,38185,30113,36084,30472,29308,31650,28911,28693,30101,28348,24789,25592,24687,25988,25682,24136,26210,26460,26095,26393,26798,28496,23064,22889
Callahan Drive,E of Old Callahan,Knox,47000451,TDOT,"Moved to the east side of Central Ave Pk in 2021, per Conger",93000451,ACTIVE,,-83.991464,36.027622,,,,,,,15500,18071,18545,19101,20624,21243,22044,23312,6415,6440,6627,7119,6614,7485,7560,6396,6222,6896
Old Callahan Drive,E of Clinton Highway,Knox,47000448,TDOT,,93000448,ACTIVE,,-84.01666891,36.01225487,,,,,,,16658,3341,3821,21223,21253,21381,21292,23130,23484,21950,23947,24186,24418,25115,25430,23955,24903,27798
Joe Johnson Drive,E of Neyland Dr,Knox,47000449,TDOT,,93000449,ACTIVE,,-83.93939888,35.94771986,,,,,,,3502,5246,7516,6518,6714,6915,5414,3982,5189,5951,7100,7643,7424,6826,7377,6859,7202,7123
N Gallaher View Rd,N of Kingston Pike,Knox,47000500,TDOT,,93000500,ACTIVE,,-84.05897792,35.92382185,,,,,,,,,,,,19161,18086,18171,18716,19277,19470,19519,19621,19798,20778,18451,20980,19684
Hollywood Rd,S of I-40,Knox,47000487,TDOT,,93000487,ACTIVE,,-83.9816639,35.94921386,,,,,,,,,,,,7029,6732,6934,7433,8200,7991,8648,8442,8450,8155,7242,8330,9316
I-75,Copeland Dr & Brushy Valley Rd,Knox,47000272,TDOT,,93000272,ACTIVE,,-84.01554334,36.07747676,37606,36780,40792,41129,42182,44261,44105,46120,45412,46117,39527,36523,45639,46190,47294,37502,43697,44236,41302,42150,44905,50677,57022,58052
Cherokee Trl,E of Alcoa Hwy,Knox,47000273,TDOT,,93000273,ACTIVE,,-83.94040788,35.93661386,3490,4006,4347,4229,4511,4455,4636,4482,4616,4754,9619,9895,10192,11984,11238,10353,9931,10848,12410,12999,12707,13953,11833,11703
W Gov John Sevier Hwy,W of Twin Creeks Rd,Knox,47000290,TDOT,,93000290,ACTIVE,,-83.90273187,35.89213585,13110,14941,13901,13604,14495,15338,14987,15281,15068,15433,15064,14364,15577,15754,14430,14440,14950,14947,15207,16521,17640,20749,16617,16411
Merchants Dr,W of I-75,Knox,47000292,TDOT,,93000292,ACTIVE,,-83.9754629,36.00856587,28054,29213,28853,26466,27522,29223,24505,25009,24358,22024,20824,20240,18569,21659,26483,22567,24354,23125,22950,23340,23310,17682,21982,21740
Rutledge Pk,E of Branville Rd,Knox,47000293,TDOT,,93000293,ACTIVE,,-83.80831158,36.04743535,13653,13867,12900,14110,14108,13460,15362,14190,13238,14822,12516,12615,13597,12478,13516,13556,14374,14230,13670,17095,15626,13147,15842,15730
Campbell Station Rd,S of I-40,Knox,47000294,TDOT,,93000294,ACTIVE,,-84.17254095,35.89202284,19225,20751,21399,22931,21838,23677,20163,22215,21341,24040,23333,24668,22322,23918,25452,25785,25235,27836,27198,20965,26890,28334,29011,23918
Mabry Hood Rd,S of Parkside Dr,Knox,47000296,TDOT,,93000296,ACTIVE,,-84.11938593,35.90702984,4435,5282,6129,5753,6284,6204,5622,6483,6479,6691,5757,5946,6168,6140,6302,6103,6538,6935,7053,6943,7188,6651,7391,7095
Alcoa Hwy,N of Gov John Sevier Hwy,Knox,47000316,TDOT,,93000316,ACTIVE,,-83.95304863,35.89324167,44029,42299,45848,47691,42935,46951,48064,48369,47274,46520,41273,44730,46131,41075,45691,47014,51562,49655,52590,49666,52833,46916,49262,48720
Pleasant Ridge Rd,W of Bradshaw Rd,Knox,47000378,TDOT,,93000378,ACTIVE,,-83.9931099,35.98679887,12708,15041,13313,13682,12785,14898,13085,13054,13106,12275,12418,12154,11640,10857,12066,12591,12548,12890,13131,10504,13230,11974,13295,15506
Ball Rd,SW of Johnson Rd,Knox,47000079,TDOT,,93000079,ACTIVE,,-84.06545592,35.98325586,4371,5814,4833,5210,7902,8069,7275,7982,6865,7071,6480,6247,5352,6181,6022,5676,5753,6244,6264,7411,7752,7147,7173,7632
Oak Ridge Hwy,at Guinn Rd,Knox,47000082,TDOT,,93000082,ACTIVE,,-84.18325568,35.98202061,40212,43037,43205,46423,49738,45493,52806,45890,47668,48329,50855,49623,52055,54517,50706,49216,49708,50205,49706,40736,56197,38308,48147,50202
Pellissippi Py,S of Oak Ridge Hwy,Knox,47000083,TDOT,,93000083,ACTIVE,,-84.17811495,35.9737658,32359,33176,37741,38433,41867,42786,45176,41791,41954,41404,42646,44969,46872,47669,44056,44780,45228,45680,44920,43295,49190,41210,42083,45137
Hardin Valley Rd,W of Pellissippi Pkwy,Knox,47000084,TDOT,,93000084,ACTIVE,,-84.16144495,35.94621885,5587,7520,7019,7179,7533,7761,8457,8804,9379,9660,9950,10492,17696,17809,15642,17441,17615,17791,17969,18120,16739,14864,16495,17402
E Emory Rd,Near Grainger Co Line,Knox,47000015,TDOT,,93000015,ACTIVE,,-83.73026683,36.15399691,1875,1723,1728,1548,1597,1632,1728,1638,937,899,879,878,904,820,829,776,780,923,951,884,935,916,974,987
Norhtshore Dr,W of Concord Rd,Knox,47000297,TDOT,,93000297,ACTIVE,,-84.15937494,35.84617883,4319,6473,5375,5563,6001,6046,11292,8003,7561,8194,7594,9063,8448,9136,10230,11307,11469,12016,14522,13577,12716,11928,17552,17359
Lovell Rd,N of McBride Ln,Knox,47000285,TDOT,,93000285,ACTIVE,,-84.15039394,35.91612084,11162,9923,10311,11771,12582,12186,16401,16893,16198,16003,15793,15575,15180,15216,16030,16180,16417,18130,18840,17532,14630,15512,17443,17251
Ebenezer Rd,S of Nubbin Ridge Rd,Knox,47000286,TDOT,,93000286,ACTIVE,,-84.06485092,35.88488184,14016,15502,15586,17645,15651,16730,16397,17434,16355,15111,14530,15533,14717,15634,16555,14456,14550,14546,14691,12863,13806,14650,15039,15739
I-40 Ramp,,Knox,47000009R,TDOT,,47000009R,ACTIVE,,-84.17662495,35.89798084,,,,,,,,,,,,,,,,,,,,4754,4737,2729,4326,4180
I-40 Ramp,,Knox,47000012R,TDOT,,47000012R,ACTIVE,,-84.17613095,35.89884284,,,,,,,,,,,,,,,,,,,,4595,4704,4037,4171,4522
I-40 Ramp,,Knox,47000010R,TDOT,,47000010R,ACTIVE,,-84.17393995,35.89858284,,,,,,,,,,,,,,,,,,,,12187,13489,10592,11354,11229
I-40 Ramp,,Knox,47000011R,TDOT,,47000011R,ACTIVE,,-84.17376295,35.89944984,,,,,,,,,,,,,,,,,,,,12157,8473,8182,11522,9376
I-40 Ramp,,Knox,47000013R,TDOT,,47000013R,ACTIVE,,-84.14700894,35.90535684,,,,,,,,,,,,,,,,,,,,6948,6568,4490,5945,6121
I-40 Ramp,,Knox,47000016R,TDOT,,47000016R,ACTIVE,,-84.14800094,35.90574384,,,,,,,,,,,,,,,,,,,,6476,6183,5261,5901,5836
I-40 Ramp,,Knox,47000015R,TDOT,,47000015R,ACTIVE,,-84.14274994,35.90707385,,,,,,,,,,,,,,,,,,,,14387,14531,10142,17515,14355
I-40 Ramp,,Knox,47000014R,TDOT,,47000014R,ACTIVE,,-84.14187094,35.90657384,,,,,,,,,,,,,,,,,,,,15879,15518,12510,14914,13361
I-40 Ramp,,Knox,47000017R,TDOT,,47000017R,ACTIVE,,-84.12511493,35.91035785,,,,,,,,,,,,,,,,,,,,12854,13165,8586,14304,12834
I-40 Ramp,,Knox,47000111R,TDOT,,47000111R,ACTIVE,,-84.12420993,35.91165185,,,,,,,,,,,,,,,,,,,,12328,12035,8492,12768,11801
I-40 Ramp,,Knox,47000022R,TDOT,,47000022R,ACTIVE,,-84.12502693,35.91366185,,,,,,,,,,,,,,,,,,,,5262,5239,5038,6094,5189
I-140 Ramp,,Knox,47000206R,TDOT,,47000206R,ACTIVE,,-84.11992793,35.90427885,,,,,,,,,,,,,,,,,,,,3746,3605,2979,3623,3499
I-140 Ramp,,Knox,47000205R,TDOT,,47000205R,ACTIVE,,-84.12023893,35.90470884,,,,,,,,,,,,,,,,,,,,7936,7979,6574,8680,8346
I-140 Ramp,,Knox,47000208R,TDOT,,47000208R,ACTIVE,,-84.11849793,35.90103284,,,,,,,,,,,,,,,,,,,,4257,5006,3454,4384,4223
I-140 Ramp,,Knox,47000210R,TDOT,,47000210R,ACTIVE,,-84.11712393,35.90126984,,,,,,,,,,,,,,,,,,,,6604,6059,5376,6580,6508
I-140 Ramp,,Knox,47000209R,TDOT,,47000209R,ACTIVE,,-84.11672593,35.90055984,,,,,,,,,,,,,,,,,,,,8121,7924,6399,8749,7727
I-140 Ramp,,Knox,47000207R,TDOT,,47000207R,ACTIVE,,-84.11891493,35.90192984,,,,,,,,,,,,,,,,,,,,4489,4406,4160,4235,4369
I-140 Ramp,,Knox,47000211R,TDOT,,47000211R,ACTIVE,,-84.11866593,35.90460985,,,,,,,,,,,,,,,,,,,,6796,6810,5443,6899,6422
I-40 Ramp,,Knox,47000204R,TDOT,,47000204R,ACTIVE,,-84.12220993,35.91041985,,,,,,,,,,,,,,,,,,,,7559,7519,5638,7823,7148
I-40 Ramp,,Knox,47000112R,TDOT,,47000112R,ACTIVE,,-84.11983793,35.91112185,,,,,,,,,,,,,,,,,,,,5530,6606,3920,6324,5583
I-40 Ramp,,Knox,47000113R,TDOT,,47000113R,ACTIVE,,-84.12156093,35.91371585,,,,,,,,,,,,,,,,,,,,6348,6674,5684,7055,6579
I-40 Ramp,,Knox,47000018R,TDOT,,47000018R,ACTIVE,,-84.11876593,35.91125285,,,,,,,,,,,,,,,,,,,,12047,13072,9676,12810,12349
I-140 Ramp,,Knox,47000212R,TDOT,,47000212R,ACTIVE,,-84.09648192,35.87763984,,,,,,,,,,,,,,,,,,,,6207,6535,5524,5800,6472
I-140 Ramp,,Knox,47000215R,TDOT,,47000215R,ACTIVE,,-84.09579392,35.87816684,,,,,,,,,,,,,,,,,,,,6177,7125,4507,7717,7632
I-140 Ramp,,Knox,47000213R,TDOT,,47000213R,ACTIVE,,-84.09345792,35.87468584,,,,,,,,,,,,,,,,,,,,2736,3032,2646,3630,3331
I-140 Ramp,,Knox,47000214R,TDOT,,47000214R,ACTIVE,,-84.09277492,35.87537784,,,,,,,,,,,,,,,,,,,,2859,3376,2192,3354,3330
I-40 Ramp,,Knox,47000020R,TDOT,,47000020R,ACTIVE,,-84.11346193,35.91354285,,,,,,,,,,,,,,,,,,,,24828,34117,29977,26049,25762
I-140 Ramp,,Knox,47000216R,TDOT,,47000216R,ACTIVE,,-84.07733892,35.86254684,,,,,,,,,,,,,,,,,,,,7289,7522,6444,8699,7680
I-140 Ramp,,Knox,47000219R,TDOT,,47000219R,ACTIVE,,-84.07366391,35.86054984,,,,,,,,,,,,,,,,,,,,5787,6260,5868,8512,7540
I-140 Ramp,,Knox,47000217R,TDOT,,47000217R,ACTIVE,,-84.06931891,35.85799284,,,,,,,,,,,,,,,,,,,,4976,7105,4976,6488,6671
I-140 Ramp,,Knox,47000218R,TDOT,,47000218R,ACTIVE,,-84.06889991,35.85890384,,,,,,,,,,,,,,,,,,,,7270,7482,5154,6653,6417
I-40 Ramp,,Knox,47000019R,TDOT,,47000019R,ACTIVE,,-84.12210893,35.91435485,,,,,,,,,,,,,,,,,,,,18014,18292,14453,16650,19267
I-40 Ramp,,Knox,47000023R,TDOT,,47000023R,ACTIVE,,-84.09317292,35.91703785,,,,,,,,,,,,,,,,,,,,12421,15319,10108,10535,11243
I-40 Ramp,,Knox,47000024R,TDOT,,47000024R,ACTIVE,,-84.09183392,35.91732085,,,,,,,,,,,,,,,,,,,,6938,7157,7314,5770,5658
I-40 Ramp,,Knox,47000027R,TDOT,,47000027R,ACTIVE,,-84.09257892,35.91822285,,,,,,,,,,,,,,,,,,,,5942,6219,5694,5927,5697
I-40 Ramp,,Knox,47000028R,TDOT,,47000028R,ACTIVE,,-84.08997292,35.91957985,,,,,,,,,,,,,,,,,,,,4341,3943,4226,3740,3656
I-40 Ramp,,Knox,47000025R,TDOT,,47000025R,ACTIVE,,-84.08848592,35.91818285,,,,,,,,,,,,,,,,,,,,10172,11166,8783,9059,8974
I-40 Ramp,,Knox,47000026R,TDOT,,47000026R,ACTIVE,,-84.08360192,35.92008285,,,,,,,,,,,,,,,,,,,,17741,18608,12578,16755,16534
I-40 Ramp,,Knox,47000032R,TDOT,,47000032R,ACTIVE,,-84.07136192,35.92280485,,,,,,,,,,,,,,,,,,,,12272,11339,10198,10073,10389
I-40 Ramp,,Knox,47000029R,TDOT,,47000029R,ACTIVE,,-84.07063992,35.92219785,,,,,,,,,,,,,,,,,,,,10712,12527,6796,8949,9048
I-40 Ramp,,Knox,47000116R,TDOT,,47000116R,ACTIVE,,-84.06652892,35.92320985,,,,,,,,,,,,,,,,,,,,5208,4727,4297,4525,4475
